CODIGO MUNICIPIO;LATITUDE;LONGITUDE;;;;;CÓDIGO MUNICÍPIO;UF;NOME MUNICIPIO;LAT;LONG
110001;-11.92;-61.99;;;;;110001;RO;Alta Floresta d`Oeste;-11.92;-61.99
110002;-9.91;-63.04;;;;;110002;RO;Ariquemes;-9.91;-63.04
110003;-13.49;-60.54;;;;;110003;RO;Cabixi;-13.49;-60.54
110004;-11.43;-61.44;;;;;110004;RO;Cacoal;-11.43;-61.44
110005;-13.18;-60.81;;;;;110005;RO;Cerejeiras;-13.18;-60.81
110006;-13.11;-60.54;;;;;110006;RO;Colorado do Oeste;-13.11;-60.54
110007;-12.96;-60.88;;;;;110007;RO;Corumbiara;-12.96;-60.88
110008;-12.44;-64.22;;;;;110008;RO;Costa Marques;-12.44;-64.22
110009;-11.52;-61.01;;;;;110009;RO;Espigão d`Oeste;-11.52;-61.01
110010;-10.78;-65.33;;;;;110010;RO;Guajará-Mirim;-10.78;-65.33
110011;-10.43;-62.46;;;;;110011;RO;Jaru;-10.43;-62.46
110012;-10.88;-61.94;;;;;110012;RO;Ji-Paraná;-10.88;-61.94
110013;-9.44;-61.98;;;;;110013;RO;Machadinho d`Oeste;-9.44;-61.98
110014;-11.72;-62.33;;;;;110014;RO;Nova Brasilândia d`Oeste;-11.72;-62.33
110015;-10.71;-62.24;;;;;110015;RO;Ouro Preto do Oeste;-10.71;-62.24
110018;-11.67;-61.19;;;;;110018;RO;Pimenta Bueno;-11.67;-61.19
110020;-8.76;-63.9;;;;;110020;RO;Porto Velho;-8.76;-63.9
110025;-11.17;-61.9;;;;;110025;RO;Presidente Médici;-11.17;-61.9
110026;-9.7;-62.9;;;;;110026;RO;Rio Crespo;-9.7;-62.9
110028;-11.73;-61.77;;;;;110028;RO;Rolim de Moura;-11.73;-61.77
110029;-11.9;-61.77;;;;;110029;RO;Santa Luzia d`Oeste;-11.9;-61.77
110030;-12.74;-60.14;;;;;110030;RO;Vilhena;-12.74;-60.14
110032;-11.68;-62.68;;;;;110032;RO;São Miguel do Guaporé;-11.68;-62.68
110033;-10.41;-65.33;;;;;110033;RO;Nova Mamoré;-10.41;-65.33
110034;-11.4;-62.38;;;;;110034;RO;Alvorada d`Oeste;-11.4;-62.38
110037;-12.12;-61.85;;;;;110037;RO;Alto Alegre dos Parecis;-12.12;-61.85
110040;-9.71;-63.32;;;;;110040;RO;Alto Paraíso;-9.71;-63.32
110045;-10.21;-63.82;;;;;110045;RO;Buritis;-10.21;-63.82
110050;-11.71;-62;;;;;110050;RO;Novo Horizonte do Oeste;-11.71;-62
110060;-10.34;-62.89;;;;;110060;RO;Cacaulândia;-10.34;-62.89
110070;-10.57;-63.62;;;;;110070;RO;Campo Novo de Rondônia;-10.57;-63.62
110080;-8.79;-63.7;;;;;110080;RO;Candeias do Jamari;-8.79;-63.7
110090;-11.42;-61.95;;;;;110090;RO;Castanheiras;-11.42;-61.95
110092;-12.55;-60.9;;;;;110092;RO;Chupinguaia;-12.55;-60.9
110094;-9.36;-62.58;;;;;110094;RO;Cujubim;-9.36;-62.58
110100;-10.6;-62.73;;;;;110100;RO;Governador Jorge Teixeira;-10.6;-62.73
110110;-9.2;-63.18;;;;;110110;RO;Itapuã do Oeste;-9.2;-63.18
110120;-11.19;-61.51;;;;;110120;RO;Ministro Andreazza;-11.19;-61.51
110130;-11.02;-62.67;;;;;110130;RO;Mirante da Serra;-11.02;-62.67
110140;-10.24;-63.29;;;;;110140;RO;Monte Negro;-10.24;-63.29
110143;-10.9;-62.56;;;;;110143;RO;Nova União;-10.9;-62.56
110145;-12.17;-61.6;;;;;110145;RO;Parecis;-12.17;-61.6
110146;-13.48;-61.04;;;;;110146;RO;Pimenteiras do Oeste;-13.48;-61.04
110147;-11.82;-61.32;;;;;110147;RO;Primavera de Rondônia;-11.82;-61.32
110148;-11.9;-61.5;;;;;110148;RO;São Felipe d`Oeste;-11.9;-61.5
110149;-12.06;-63.56;;;;;110149;RO;São Francisco do Guaporé;-12.06;-63.56
110150;-11.79;-63.03;;;;;110150;RO;Seringueiras;-11.79;-63.03
110155;-10.91;-62.24;;;;;110155;RO;Teixeirópolis;-10.91;-62.24
110160;-10.24;-62.35;;;;;110160;RO;Theobroma;-10.24;-62.35
110170;-11.12;-62.37;;;;;110170;RO;Urupá;-11.12;-62.37
110175;-9.86;-62.18;;;;;110175;RO;Vale do Anari;-9.86;-62.18
110180;-10.44;-62.13;;;;;110180;RO;Vale do Paraíso;-10.44;-62.13
120001;-9.82;-66.88;;;;;120001;AC;Acrelândia;-9.82;-66.88
120005;-10.94;-69.56;;;;;120005;AC;Assis Brasil;-10.94;-69.56
120010;-11.01;-68.74;;;;;120010;AC;Brasiléia;-11.01;-68.74
120013;-9.83;-67.95;;;;;120013;AC;Bujari;-9.83;-67.95
120017;-10.57;-67.67;;;;;120017;AC;Capixaba;-10.57;-67.67
120020;-7.63;-72.66;;;;;120020;AC;Cruzeiro do Sul;-7.63;-72.66
120025;-11.02;-68.74;;;;;120025;AC;Epitaciolândia;-11.02;-68.74
120030;-8.16;-70.35;;;;;120030;AC;Feijó;-8.16;-70.35
120032;-9.43;-71.88;;;;;120032;AC;Jordão;-9.43;-71.88
120033;-7.61;-72.89;;;;;120033;AC;Mâncio Lima;-7.61;-72.89
120034;-8.83;-69.26;;;;;120034;AC;Manoel Urbano;-8.83;-69.26
120035;-8.94;-72.79;;;;;120035;AC;Marechal Thaumaturgo;-8.94;-72.79
120038;-10.33;-67.18;;;;;120038;AC;Plácido de Castro;-10.33;-67.18
120039;-8.26;-72.74;;;;;120039;AC;Porto Walter;-8.26;-72.74
120040;-9.97;-67.8;;;;;120040;AC;Rio Branco;-9.97;-67.8
120042;-7.74;-72.64;;;;;120042;AC;Rodrigues Alves;-7.74;-72.64
120043;-9.43;-70.49;;;;;120043;AC;Santa Rosa do Purus;-9.43;-70.49
120045;-10.15;-67.73;;;;;120045;AC;Senador Guiomard;-10.15;-67.73
120050;-9.06;-68.65;;;;;120050;AC;Sena Madureira;-9.06;-68.65
120060;-8.16;-70.76;;;;;120060;AC;Tarauacá;-8.16;-70.76
120070;-10.65;-68.5;;;;;120070;AC;Xapuri;-10.65;-68.5
120080;-9.58;-67.53;;;;;120080;AC;Porto Acre;-9.58;-67.53
130002;-3.22;-64.8;;;;;130002;AM;Alvarães;-3.22;-64.8
130006;-3.36;-68.19;;;;;130006;AM;Amaturá;-3.36;-68.19
130008;-3.57;-61.4;;;;;130008;AM;Anamã;-3.57;-61.4
130010;-3.77;-61.64;;;;;130010;AM;Anori;-3.77;-61.64
130014;-7.19;-59.89;;;;;130014;AM;Apuí;-7.19;-59.89
130020;-4.37;-70.19;;;;;130020;AM;Atalaia do Norte;-4.37;-70.19
130030;-3.57;-59.13;;;;;130030;AM;Autazes;-3.57;-59.13
130040;-0.97;-62.92;;;;;130040;AM;Barcelos;-0.97;-62.92
130050;-2.79;-57.06;;;;;130050;AM;Barreirinha;-2.79;-57.06
130060;-4.38;-70.03;;;;;130060;AM;Benjamin Constant;-4.38;-70.03
130063;-3.89;-61.37;;;;;130063;AM;Beruri;-3.89;-61.37
130068;-2.97;-57.59;;;;;130068;AM;Boa Vista do Ramos;-2.97;-57.59
130070;-8.75;-67.39;;;;;130070;AM;Boca do Acre;-8.75;-67.39
130080;-4.38;-59.59;;;;;130080;AM;Borba;-4.38;-59.59
130083;-3.32;-61.2;;;;;130083;AM;Caapiranga;-3.32;-61.2
130090;-6.53;-64.38;;;;;130090;AM;Canutama;-6.53;-64.38
130100;-4.88;-66.89;;;;;130100;AM;Carauari;-4.88;-66.89
130110;-3.76;-60.36;;;;;130110;AM;Careiro;-3.76;-60.36
130115;-3.22;-59.82;;;;;130115;AM;Careiro da Várzea;-3.22;-59.82
130120;-4.08;-63.14;;;;;130120;AM;Coari;-4.08;-63.14
130130;-3.83;-62.05;;;;;130130;AM;Codajás;-3.83;-62.05
130140;-6.65;-69.87;;;;;130140;AM;Eirunepé;-6.65;-69.87
130150;-7.43;-70.02;;;;;130150;AM;Envira;-7.43;-70.02
130160;-2.51;-66.09;;;;;130160;AM;Fonte Boa;-2.51;-66.09
130165;-7.54;-72.58;;;;;130165;AM;Guajará;-7.54;-72.58
130170;-7.5;-63.02;;;;;130170;AM;Humaitá;-7.5;-63.02
130180;-7.05;-71.69;;;;;130180;AM;Ipixuna;-7.05;-71.69
130185;-3.28;-60.18;;;;;130185;AM;Iranduba;-3.28;-60.18
130190;-3.14;-58.44;;;;;130190;AM;Itacoatiara;-3.14;-58.44
130195;-6.42;-68.25;;;;;130195;AM;Itamarati;-6.42;-68.25
130200;-2.74;-58.02;;;;;130200;AM;Itapiranga;-2.74;-58.02
130210;-1.82;-66.59;;;;;130210;AM;Japurá;-1.82;-66.59
130220;-3.48;-66.06;;;;;130220;AM;Juruá;-3.48;-66.06
130230;-2.74;-66.76;;;;;130230;AM;Jutaí;-2.74;-66.76
130240;-7.25;-64.79;;;;;130240;AM;Lábrea;-7.25;-64.79
130250;-3.29;-60.62;;;;;130250;AM;Manacapuru;-3.29;-60.62
130255;-3.42;-60.45;;;;;130255;AM;Manaquiri;-3.42;-60.45
130260;-3.1;-60.02;;;;;130260;AM;Manaus;-3.1;-60.02
130270;-5.8;-61.29;;;;;130270;AM;Manicoré;-5.8;-61.29
130280;-1.85;-65.58;;;;;130280;AM;Maraã;-1.85;-65.58
130290;-3.38;-57.71;;;;;130290;AM;Maués;-3.38;-57.71
130300;-2.18;-56.71;;;;;130300;AM;Nhamundá;-2.18;-56.71
130310;-3.88;-59.09;;;;;130310;AM;Nova Olinda do Norte;-3.88;-59.09
130320;-2.62;-60.94;;;;;130320;AM;Novo Airão;-2.62;-60.94
130330;-5.12;-60.38;;;;;130330;AM;Novo Aripuanã;-5.12;-60.38
130340;-2.62;-56.73;;;;;130340;AM;Parintins;-2.62;-56.73
130350;-7.71;-66.97;;;;;130350;AM;Pauini;-7.71;-66.97
130353;-2.03;-60.02;;;;;130353;AM;Presidente Figueiredo;-2.03;-60.02
130356;-2.69;-59.7;;;;;130356;AM;Rio Preto da Eva;-2.69;-59.7
130360;-0.41;-65.01;;;;;130360;AM;Santa Isabel do Rio Negro;-0.41;-65.01
130370;-3.1;-67.94;;;;;130370;AM;Santo Antônio do Içá;-3.1;-67.94
130380;-0.12;-67.08;;;;;130380;AM;São Gabriel da Cachoeira;-0.12;-67.08
130390;-3.37;-68.87;;;;;130390;AM;São Paulo de Olivença;-3.37;-68.87
130395;-2.57;-57.87;;;;;130395;AM;São Sebastião do Uatumã;-2.57;-57.87
130400;-2.83;-58.2;;;;;130400;AM;Silves;-2.83;-58.2
130406;-4.25;-69.93;;;;;130406;AM;Tabatinga;-4.25;-69.93
130410;-5.62;-63.18;;;;;130410;AM;Tapauá;-5.62;-63.18
130420;-3.35;-64.71;;;;;130420;AM;Tefé;-3.35;-64.71
130423;-2.87;-67.8;;;;;130423;AM;Tonantins;-2.87;-67.8
130426;-2.99;-65.1;;;;;130426;AM;Uarini;-2.99;-65.1
130430;-2.53;-57.75;;;;;130430;AM;Urucará;-2.53;-57.75
130440;-3.13;-58.15;;;;;130440;AM;Urucurituba;-3.13;-58.15
140002;3.65;-61.37;;;;;140002;RR;Amajari;3.65;-61.37
140005;2.98;-61.29;;;;;140005;RR;Alto Alegre;2.98;-61.29
140010;2.81;-60.67;;;;;140010;RR;Boa Vista;2.81;-60.67
140015;3.35;-59.83;;;;;140015;RR;Bonfim;3.35;-59.83
140017;2.6;-60.59;;;;;140017;RR;Cantá;2.6;-60.59
140020;1.81;-61.12;;;;;140020;RR;Caracaraí;1.81;-61.12
140023;0.88;-59.69;;;;;140023;RR;Caroebe;0.88;-59.69
140028;2.18;-61.04;;;;;140028;RR;Iracema;2.18;-61.04
140030;2.43;-60.9;;;;;140030;RR;Mucajaí;2.43;-60.9
140040;3.88;-59.62;;;;;140040;RR;Normandia;3.88;-59.62
140045;4.43;-61.14;;;;;140045;RR;Pacaraima;4.43;-61.14
140047;0.94;-60.41;;;;;140047;RR;Rorainópolis;0.94;-60.41
140050;0.95;-59.91;;;;;140050;RR;São João da Baliza;0.95;-59.91
140060;1;-60.15;;;;;140060;RR;São Luiz;1;-60.15
140070;4.59;-60.16;;;;;140070;RR;Uiramutã;4.59;-60.16
150010;-1.71;-48.88;;;;;150010;PA;Abaetetuba;-1.71;-48.88
150013;-4.95;-48.39;;;;;150013;PA;Abel Figueiredo;-4.95;-48.39
150020;-1.96;-48.19;;;;;150020;PA;Acará;-1.96;-48.19
150030;-0.15;-50.38;;;;;150030;PA;Afuá;-0.15;-50.38
150034;-6.79;-50.46;;;;;150034;PA;Água Azul do Norte;-6.79;-50.46
150040;-1.94;-54.73;;;;;150040;PA;Alenquer;-1.94;-54.73
150050;-1.52;-52.58;;;;;150050;PA;Almeirim;-1.52;-52.58
150060;-3.2;-52.2;;;;;150060;PA;Altamira;-3.2;-52.2
150070;-0.98;-49.93;;;;;150070;PA;Anajás;-0.98;-49.93
150080;-1.36;-48.37;;;;;150080;PA;Ananindeua;-1.36;-48.37
150085;-3.47;-51.19;;;;;150085;PA;Anapu;-3.47;-51.19
150090;-1.02;-46.64;;;;;150090;PA;Augusto Corrêa;-1.02;-46.64
150095;-2.13;-47.56;;;;;150095;PA;Aurora do Pará;-2.13;-47.56
150100;-3.6;-55.33;;;;;150100;PA;Aveiro;-3.6;-55.33
150110;-1.89;-50.16;;;;;150110;PA;Bagre;-1.89;-50.16
150120;-2.79;-49.67;;;;;150120;PA;Baião;-2.79;-49.67
150125;-7.34;-50.39;;;;;150125;PA;Bannach;-7.34;-50.39
150130;-1.5;-48.62;;;;;150130;PA;Barcarena;-1.5;-48.62
150140;-1.45;-48.5;;;;;150140;PA;Belém;-1.45;-48.5
150145;-2.63;-54.93;;;;;150145;PA;Belterra;-2.63;-54.93
150150;-1.36;-48.24;;;;;150150;PA;Benevides;-1.36;-48.24
150157;-5.05;-48.6;;;;;150157;PA;Bom Jesus do Tocantins;-5.05;-48.6
150160;-1.36;-47.3;;;;;150160;PA;Bonito;-1.36;-47.3
150170;-1.06;-46.77;;;;;150170;PA;Bragança;-1.06;-46.77
150172;-3.26;-52.66;;;;;150172;PA;Brasil Novo;-3.26;-52.66
150175;-5.69;-48.41;;;;;150175;PA;Brejo Grande do Araguaia;-5.69;-48.41
150178;-4;-49.46;;;;;150178;PA;Breu Branco;-4;-49.46
150180;-1.68;-50.47;;;;;150180;PA;Breves;-1.68;-50.47
150190;-1.51;-48.04;;;;;150190;PA;Bujaru;-1.51;-48.04
150195;-1.67;-46.52;;;;;150195;PA;Cachoeira do Piriá;-1.67;-46.52
150200;-1.01;-48.96;;;;;150200;PA;Cachoeira do Arari;-1.01;-48.96
150210;-2.24;-49.49;;;;;150210;PA;Cametá;-2.24;-49.49
150215;-6.49;-49.87;;;;;150215;PA;Canaã dos Carajás;-6.49;-49.87
150220;-1.19;-47.18;;;;;150220;PA;Capanema;-1.19;-47.18
150230;-1.74;-47.06;;;;;150230;PA;Capitão Poço;-1.74;-47.06
150240;-1.29;-47.92;;;;;150240;PA;Castanhal;-1.29;-47.92
150250;-0.15;-49.98;;;;;150250;PA;Chaves;-0.15;-49.98
150260;-0.93;-48.28;;;;;150260;PA;Colares;-0.93;-48.28
150270;-8.25;-49.26;;;;;150270;PA;Conceição do Araguaia;-8.25;-49.26
150275;-1.99;-47.94;;;;;150275;PA;Concórdia do Pará;-1.99;-47.94
150276;-7.82;-50.77;;;;;150276;PA;Cumaru do Norte;-7.82;-50.77
150277;-6.09;-49.54;;;;;150277;PA;Curionópolis;-6.09;-49.54
150280;-1.81;-49.79;;;;;150280;PA;Curralinho;-1.81;-49.79
150285;-1.88;-55.11;;;;;150285;PA;Curuá;-1.88;-55.11
150290;-0.73;-47.85;;;;;150290;PA;Curuçá;-0.73;-47.85
150293;-4.28;-47.5;;;;;150293;PA;Dom Eliseu;-4.28;-47.5
150295;-6.1;-49.35;;;;;150295;PA;Eldorado dos Carajás;-6.1;-49.35
150300;-2.17;-56.74;;;;;150300;PA;Faro;-2.17;-56.74
150304;-7.55;-49.71;;;;;150304;PA;Floresta do Araguaia;-7.55;-49.71
150307;-1.93;-47.05;;;;;150307;PA;Garrafão do Norte;-1.93;-47.05
150309;-3.84;-49.09;;;;;150309;PA;Goianésia do Pará;-3.84;-49.09
150310;-1.4;-51.63;;;;;150310;PA;Gurupá;-1.4;-51.63
150320;-1.12;-47.61;;;;;150320;PA;Igarapé-Açu;-1.12;-47.61
150330;-1.97;-48.95;;;;;150330;PA;Igarapé-Miri;-1.97;-48.95
150340;-1.42;-47.91;;;;;150340;PA;Inhangapi;-1.42;-47.91
150345;-2.55;-47.49;;;;;150345;PA;Ipixuna do Pará;-2.55;-47.49
150350;-1.76;-47.43;;;;;150350;PA;Irituia;-1.76;-47.43
150360;-4.27;-55.98;;;;;150360;PA;Itaituba;-4.27;-55.98
150370;-5.13;-49.32;;;;;150370;PA;Itupiranga;-5.13;-49.32
150375;-6.22;-57.75;;;;;150375;PA;Jacareacanga;-6.22;-57.75
150380;-4.45;-49.11;;;;;150380;PA;Jacundá;-4.45;-49.11
150390;-2.15;-56.09;;;;;150390;PA;Juruti;-2.15;-56.09
150400;-1.89;-49.38;;;;;150400;PA;Limoeiro do Ajuru;-1.89;-49.38
150405;-2.05;-47.55;;;;;150405;PA;Mãe do Rio;-2.05;-47.55
150410;-0.79;-47.59;;;;;150410;PA;Magalhães Barata;-0.79;-47.59
150420;-5.36;-49.11;;;;;150420;PA;Marabá;-5.36;-49.11
150430;-0.76;-47.45;;;;;150430;PA;Maracanã;-0.76;-47.45
150440;-0.71;-47.69;;;;;150440;PA;Marapanim;-0.71;-47.69
150442;-1.35;-48.34;;;;;150442;PA;Marituba;-1.35;-48.34
150445;-3.44;-52.88;;;;;150445;PA;Medicilândia;-3.44;-52.88
150450;-1.8;-50.71;;;;;150450;PA;Melgaço;-1.8;-50.71
150460;-2.58;-49.5;;;;;150460;PA;Mocajuba;-2.58;-49.5
150470;-1.88;-48.76;;;;;150470;PA;Moju;-1.88;-48.76
150475;-2.68;-54.65;;;;;150480;PA;Monte Alegre;-2;-54.06
150480;-2;-54.06;;;;;150490;PA;Muaná;-1.52;-49.21
150490;-1.52;-49.21;;;;;150495;PA;Nova Esperança do Piriá;-2.26;-46.96
150495;-2.26;-46.96;;;;;150497;PA;Nova Ipixuna;-4.92;-49.07
150497;-4.92;-49.07;;;;;150500;PA;Nova Timboteua;-1.2;-47.38
150500;-1.2;-47.38;;;;;150503;PA;Novo Progresso;-7.14;-55.38
150503;-7.14;-55.38;;;;;150506;PA;Novo Repartimento;-4.33;-49.79
150506;-4.33;-49.79;;;;;150510;PA;Óbidos;-1.91;-55.51
150510;-1.91;-55.51;;;;;150520;PA;Oeiras do Pará;-2;-49.85
150520;-2;-49.85;;;;;150530;PA;Oriximiná;-1.76;-55.86
150530;-1.76;-55.86;;;;;150540;PA;Ourém;-1.54;-47.11
150540;-1.54;-47.11;;;;;150543;PA;Ourilândia do Norte;-6.75;-51.08
150543;-6.75;-51.08;;;;;150548;PA;Pacajá;-3.83;-50.63
150548;-3.83;-50.63;;;;;150549;PA;Palestina do Pará;-5.74;-48.31
150549;-5.74;-48.31;;;;;150550;PA;Paragominas;-2.99;-47.35
150550;-2.99;-47.35;;;;;150553;PA;Parauapebas;-6.06;-49.9
150553;-6.06;-49.9;;;;;150555;PA;Pau d`Arco;-7.83;-50.04
150555;-7.83;-50.04;;;;;150560;PA;Peixe-Boi;-1.19;-47.31
150560;-1.19;-47.31;;;;;150563;PA;Piçarra;-6.43;-48.87
150563;-6.43;-48.87;;;;;150565;PA;Placas;-3.86;-54.22
150565;-3.86;-54.22;;;;;150570;PA;Ponta de Pedras;-1.38;-48.87
150570;-1.38;-48.87;;;;;150580;PA;Portel;-1.93;-50.82
150580;-1.93;-50.82;;;;;150590;PA;Porto de Moz;-1.74;-52.23
150590;-1.74;-52.23;;;;;150600;PA;Prainha;-1.79;-53.47
150600;-1.79;-53.47;;;;;150610;PA;Primavera;-0.94;-47.11
150610;-0.94;-47.11;;;;;150611;PA;Quatipuru;-0.9;-47
150611;-0.9;-47;;;;;150613;PA;Redenção;-8.02;-50.03
150613;-8.02;-50.03;;;;;150616;PA;Rio Maria;-7.31;-50.04
150616;-7.31;-50.04;;;;;150618;PA;Rondon do Pará;-4.77;-48.06
150618;-4.77;-48.06;;;;;150619;PA;Rurópolis;-4.09;-54.9
150619;-4.09;-54.9;;;;;150620;PA;Salinópolis;-0.62;-47.35
150620;-0.62;-47.35;;;;;150630;PA;Salvaterra;-0.75;-48.51
150630;-0.75;-48.51;;;;;150635;PA;Santa Bárbara do Pará;-1.22;-48.29
150635;-1.22;-48.29;;;;;150640;PA;Santa Cruz do Arari;-0.66;-49.16
150640;-0.66;-49.16;;;;;150650;PA;Santa Isabel do Pará;-1.29;-48.16
150650;-1.29;-48.16;;;;;150655;PA;Santa Luzia do Pará;-1.51;-46.94
150655;-1.51;-46.94;;;;;150658;PA;Santa Maria das Barreiras;-8.85;-49.72
150658;-8.85;-49.72;;;;;150660;PA;Santa Maria do Pará;-1.35;-47.57
150660;-1.35;-47.57;;;;;150670;PA;Santana do Araguaia;-9.5;-50.62
150670;-9.5;-50.62;;;;;150680;PA;Santarém;-2.44;-54.7
150680;-2.44;-54.7;;;;;150690;PA;Santarém Novo;-0.92;-47.39
150690;-0.92;-47.39;;;;;150700;PA;Santo Antônio do Tauá;-1.15;-48.12
150700;-1.15;-48.12;;;;;150710;PA;São Caetano de Odivelas;-0.75;-48.02
150710;-0.75;-48.02;;;;;150715;PA;São Domingos do Araguaia;-5.53;-48.73
150715;-5.53;-48.73;;;;;150720;PA;São Domingos do Capim;-1.67;-47.77
150720;-1.67;-47.77;;;;;150730;PA;São Félix do Xingu;-6.64;-51.99
150730;-6.64;-51.99;;;;;150740;PA;São Francisco do Pará;-1.16;-47.79
150740;-1.16;-47.79;;;;;150745;PA;São Geraldo do Araguaia;-6.4;-48.55
150745;-6.4;-48.55;;;;;150746;PA;São João da Ponta;-0.85;-47.91
150746;-0.85;-47.91;;;;;150747;PA;São João de Pirabas;-0.76;-47.17
150747;-0.76;-47.17;;;;;150750;PA;São João do Araguaia;-5.35;-48.79
150750;-5.35;-48.79;;;;;150760;PA;São Miguel do Guamá;-1.62;-47.48
150760;-1.62;-47.48;;;;;150770;PA;São Sebastião da Boa Vista;-1.71;-49.54
150770;-1.71;-49.54;;;;;150775;PA;Sapucaia;-6.94;-49.68
150775;-6.94;-49.68;;;;;150780;PA;Senador José Porfírio;-2.59;-51.95
150780;-2.59;-51.95;;;;;150790;PA;Soure;-0.71;-48.52
150790;-0.71;-48.52;;;;;150795;PA;Tailândia;-2.94;-48.95
150795;-2.94;-48.95;;;;;150796;PA;Terra Alta;-1.03;-47.9
150796;-1.03;-47.9;;;;;150797;PA;Terra Santa;-2.1;-56.48
150797;-2.1;-56.48;;;;;150800;PA;Tomé-Açu;-2.41;-48.15
150800;-2.41;-48.15;;;;;150803;PA;Tracuateua;-1.07;-46.89
150803;-1.07;-46.89;;;;;150805;PA;Trairão;-4.57;-55.94
150805;-4.57;-55.94;;;;;150808;PA;Tucumã;-6.74;-51.16
150808;-6.74;-51.16;;;;;150810;PA;Tucuruí;-3.76;-49.67
150810;-3.76;-49.67;;;;;150812;PA;Ulianópolis;-3.75;-47.5
150812;-3.75;-47.5;;;;;150815;PA;Uruará;-3.71;-53.73
150815;-3.71;-53.73;;;;;150820;PA;Vigia;-0.85;-48.14
150820;-0.85;-48.14;;;;;150830;PA;Viseu;-1.19;-46.13
150830;-1.19;-46.13;;;;;150835;PA;Vitória do Xingu;-2.88;-52
150835;-2.88;-52;;;;;150840;PA;Xinguara;-7.09;-49.94
150840;-7.09;-49.94;;;;;160005;AP;Serra do Navio;0.89;-52
160005;0.89;-52;;;;;160010;AP;Amapá;2.05;-50.79
160010;2.05;-50.79;;;;;160015;AP;Pedra Branca do Amaparí;0.77;-51.94
160015;0.77;-51.94;;;;;160020;AP;Calçoene;2.49;-50.94
160020;2.49;-50.94;;;;;160021;AP;Cutias;0.98;-50.8
160021;0.98;-50.8;;;;;160023;AP;Ferreira Gomes;0.85;-51.18
160023;0.85;-51.18;;;;;160025;AP;Itaubal;-0.59;-50.67
160025;-0.59;-50.67;;;;;160027;AP;Laranjal do Jari;-0.84;-52.51
160027;-0.84;-52.51;;;;;160030;AP;Macapá;0.03;-51.06
160030;0.03;-51.06;;;;;160040;AP;Mazagão;-0.11;-51.28
160040;-0.11;-51.28;;;;;160050;AP;Oiapoque;3.84;-51.83
160050;3.84;-51.83;;;;;160053;AP;Porto Grande;0.71;-51.41
160053;0.71;-51.41;;;;;160055;AP;Pracuúba;1.74;-50.79
160055;1.74;-50.79;;;;;160060;AP;Santana;-0.05;-51.18
160060;-0.05;-51.18;;;;;160070;AP;Tartarugalzinho;1.5;-50.91
160070;1.5;-50.91;;;;;160080;AP;Vitória do Jari;-0.93;-52.42
160080;-0.93;-52.42;;;;;170025;TO;Abreulândia;-9.62;-49.15
170025;-9.62;-49.15;;;;;170030;TO;Aguiarnópolis;-6.56;-47.46
170030;-6.56;-47.46;;;;;170035;TO;Aliança do Tocantins;-11.3;-48.93
170035;-11.3;-48.93;;;;;170040;TO;Almas;-11.57;-47.16
170040;-11.57;-47.16;;;;;170070;TO;Alvorada;-12.47;-49.12
170070;-12.47;-49.12;;;;;170100;TO;Ananás;-6.36;-48.07
170100;-6.36;-48.07;;;;;170105;TO;Angico;-6.38;-47.86
170105;-6.38;-47.86;;;;;170110;TO;Aparecida do Rio Negro;-9.95;-47.97
170110;-9.95;-47.97;;;;;170130;TO;Aragominas;-7.16;-48.52
170130;-7.16;-48.52;;;;;170190;TO;Araguacema;-8.8;-49.55
170190;-8.8;-49.55;;;;;170200;TO;Araguaçu;-12.93;-49.82
170200;-12.93;-49.82;;;;;170210;TO;Araguaína;-7.19;-48.2
170210;-7.19;-48.2;;;;;170215;TO;Araguanã;-6.58;-48.64
170215;-6.58;-48.64;;;;;170220;TO;Araguatins;-5.65;-48.12
170220;-5.65;-48.12;;;;;170230;TO;Arapoema;-7.65;-49.06
170230;-7.65;-49.06;;;;;170240;TO;Arraias;-12.93;-46.93
170240;-12.93;-46.93;;;;;170255;TO;Augustinópolis;-5.46;-47.88
170255;-5.46;-47.88;;;;;170270;TO;Aurora do Tocantins;-12.71;-46.4
170270;-12.71;-46.4;;;;;170290;TO;Axixá do Tocantins;-5.61;-47.76
170290;-5.61;-47.76;;;;;170300;TO;Babaçulândia;-7.2;-47.75
170300;-7.2;-47.75;;;;;170305;TO;Bandeirantes do Tocantins;-7.75;-48.58
170305;-7.75;-48.58;;;;;170307;TO;Barra do Ouro;-7.68;-47.68
170307;-7.68;-47.68;;;;;170310;TO;Barrolândia;-9.83;-48.72
170310;-9.83;-48.72;;;;;170320;TO;Bernardo Sayão;-7.87;-48.88
170320;-7.87;-48.88;;;;;170330;TO;Bom Jesus do Tocantins;-8.96;-48.16
170330;-8.96;-48.16;;;;;170360;TO;Brasilândia do Tocantins;-8.38;-48.48
170360;-8.38;-48.48;;;;;170370;TO;Brejinho de Nazaré;-11;-48.56
170370;-11;-48.56;;;;;170380;TO;Buriti do Tocantins;-5.31;-48.22
170380;-5.31;-48.22;;;;;170382;TO;Cachoeirinha;-6.12;-47.92
170382;-6.12;-47.92;;;;;170384;TO;Campos Lindos;-7.99;-46.86
170384;-7.99;-46.86;;;;;170386;TO;Cariri do Tocantins;-11.89;-49.16
170386;-11.89;-49.16;;;;;170388;TO;Carmolândia;-7.03;-48.39
170388;-7.03;-48.39;;;;;170389;TO;Carrasco Bonito;-5.32;-48.03
170389;-5.32;-48.03;;;;;170390;TO;Caseara;-9.27;-49.95
170390;-9.27;-49.95;;;;;170410;TO;Centenário;-8.95;-47.33
170410;-8.95;-47.33;;;;;170460;TO;Chapada de Areia;-10.14;-49.13
170460;-10.14;-49.13;;;;;170510;TO;Chapada da Natividade;-11.61;-47.75
170510;-11.61;-47.75;;;;;170550;TO;Colinas do Tocantins;-8.05;-48.47
170550;-8.05;-48.47;;;;;170555;TO;Combinado;-12.79;-46.53
170555;-12.79;-46.53;;;;;170560;TO;Conceição do Tocantins;-12.21;-47.29
170560;-12.21;-47.29;;;;;170600;TO;Couto Magalhães;-8.28;-49.24
170600;-8.28;-49.24;;;;;170610;TO;Cristalândia;-10.6;-49.19
170610;-10.6;-49.19;;;;;170625;TO;Crixás do Tocantins;-11.1;-48.91
170625;-11.1;-48.91;;;;;170650;TO;Darcinópolis;-6.71;-47.75
170650;-6.71;-47.75;;;;;170700;TO;Dianópolis;-11.62;-46.82
170700;-11.62;-46.82;;;;;170710;TO;Divinópolis do Tocantins;-9.8;-49.21
170710;-9.8;-49.21;;;;;170720;TO;Dois Irmãos do Tocantins;-9.25;-49.06
170720;-9.25;-49.06;;;;;170730;TO;Dueré;-11.34;-49.27
170730;-11.34;-49.27;;;;;170740;TO;Esperantina;-5.34;-48.51
170740;-5.34;-48.51;;;;;170755;TO;Fátima;-10.76;-48.9
170755;-10.76;-48.9;;;;;170765;TO;Figueirópolis;-12.13;-49.17
170765;-12.13;-49.17;;;;;170770;TO;Filadélfia;-7.33;-47.49
170770;-7.33;-47.49;;;;;170820;TO;Formoso do Araguaia;-11.79;-49.52
170820;-11.79;-49.52;;;;;170825;TO;Fortaleza do Tabocão;-9.05;-48.51
170825;-9.05;-48.51;;;;;170830;TO;Goianorte;-8.77;-48.93
170830;-8.77;-48.93;;;;;170900;TO;Goiatins;-7.71;-47.31
170900;-7.71;-47.31;;;;;170930;TO;Guaraí;-8.83;-48.5
170930;-8.83;-48.5;;;;;170950;TO;Gurupi;-11.72;-49.06
170950;-11.72;-49.06;;;;;170980;TO;Ipueiras;-11.23;-48.46
170980;-11.23;-48.46;;;;;171050;TO;Itacajá;-8.39;-47.76
171050;-8.39;-47.76;;;;;171070;TO;Itaguatins;-5.76;-47.48
171070;-5.76;-47.48;;;;;171090;TO;Itapiratins;-8.38;-48.11
171090;-8.38;-48.11;;;;;171110;TO;Itaporã do Tocantins;-8.57;-48.68
171110;-8.57;-48.68;;;;;171150;TO;Jaú do Tocantins;-12.65;-48.59
171150;-12.65;-48.59;;;;;171180;TO;Juarina;-8.11;-49.06
171180;-8.11;-49.06;;;;;171190;TO;Lagoa da Confusão;-10.79;-49.62
171190;-10.79;-49.62;;;;;171195;TO;Lagoa do Tocantins;-10.37;-47.55
171195;-10.37;-47.55;;;;;171200;TO;Lajeado;-9.75;-48.35
171200;-9.75;-48.35;;;;;171215;TO;Lavandeira;-12.78;-46.5
171215;-12.78;-46.5;;;;;171240;TO;Lizarda;-9.59;-46.67
171240;-9.59;-46.67;;;;;171245;TO;Luzinópolis;-6.18;-47.85
171245;-6.18;-47.85;;;;;171250;TO;Marianópolis do Tocantins;-9.79;-49.65
171250;-9.79;-49.65;;;;;171270;TO;Mateiros;-10.54;-46.42
171270;-10.54;-46.42;;;;;171280;TO;Maurilândia do Tocantins;-5.95;-47.5
171280;-5.95;-47.5;;;;;171320;TO;Miracema do Tocantins;-9.56;-48.39
171320;-9.56;-48.39;;;;;171330;TO;Miranorte;-9.52;-48.59
171330;-9.52;-48.59;;;;;171360;TO;Monte do Carmo;-10.76;-48.1
171360;-10.76;-48.1;;;;;171370;TO;Monte Santo do Tocantins;-10;-48.99
171370;-10;-48.99;;;;;171380;TO;Palmeiras do Tocantins;-6.61;-47.54
171380;-6.61;-47.54;;;;;171395;TO;Muricilândia;-7.14;-48.61
171395;-7.14;-48.61;;;;;171420;TO;Natividade;-11.71;-47.72
171420;-11.71;-47.72;;;;;171430;TO;Nazaré;-6.37;-47.66
171430;-6.37;-47.66;;;;;171488;TO;Nova Olinda;-7.63;-48.42
171488;-7.63;-48.42;;;;;171500;TO;Nova Rosalândia;-10.56;-48.91
171500;-10.56;-48.91;;;;;171510;TO;Novo Acordo;-9.96;-47.67
171510;-9.96;-47.67;;;;;171515;TO;Novo Alegre;-12.93;-46.57
171515;-12.93;-46.57;;;;;171525;TO;Novo Jardim;-11.82;-46.62
171525;-11.82;-46.62;;;;;171550;TO;Oliveira de Fátima;-10.7;-48.9
171550;-10.7;-48.9;;;;;171570;TO;Palmeirante;-7.86;-47.92
171570;-7.86;-47.92;;;;;171575;TO;Palmeirópolis;-13.04;-48.4
171575;-13.04;-48.4;;;;;171610;TO;Paraíso do Tocantins;-10.17;-48.86
171610;-10.17;-48.86;;;;;171620;TO;Paranã;-12.61;-47.88
171620;-12.61;-47.88;;;;;171630;TO;Pau d`Arco;-7.53;-49.37
171630;-7.53;-49.37;;;;;171650;TO;Pedro Afonso;-8.96;-48.17
171650;-8.96;-48.17;;;;;171660;TO;Peixe;-12.02;-48.53
171660;-12.02;-48.53;;;;;171665;TO;Pequizeiro;-8.59;-48.93
171665;-8.59;-48.93;;;;;171670;TO;Colméia;-8.72;-48.76
171670;-8.72;-48.76;;;;;171700;TO;Pindorama do Tocantins;-11.13;-47.57
171700;-11.13;-47.57;;;;;171720;TO;Piraquê;-6.77;-48.29
171720;-6.77;-48.29;;;;;171750;TO;Pium;-10.44;-49.18
171750;-10.44;-49.18;;;;;171780;TO;Ponte Alta do Bom Jesus;-12.09;-46.47
171780;-12.09;-46.47;;;;;171790;TO;Ponte Alta do Tocantins;-10.74;-47.53
171790;-10.74;-47.53;;;;;171800;TO;Porto Alegre do Tocantins;-11.6;-47.04
171800;-11.6;-47.04;;;;;171820;TO;Porto Nacional;-10.7;-48.41
171820;-10.7;-48.41;;;;;171830;TO;Praia Norte;-5.39;-47.81
171830;-5.39;-47.81;;;;;171840;TO;Presidente Kennedy;-8.53;-48.5
171840;-8.53;-48.5;;;;;171845;TO;Pugmil;-10.42;-48.89
171845;-10.42;-48.89;;;;;171850;TO;Recursolândia;-8.73;-47.24
171850;-8.73;-47.24;;;;;171855;TO;Riachinho;-6.43;-48.13
171855;-6.43;-48.13;;;;;171865;TO;Rio da Conceição;-11.39;-46.88
171865;-11.39;-46.88;;;;;171870;TO;Rio dos Bois;-9.29;-48.46
171870;-9.29;-48.46;;;;;171875;TO;Rio Sono;-9.34;-47.9
171875;-9.34;-47.9;;;;;171880;TO;Sampaio;-5.34;-47.87
171880;-5.34;-47.87;;;;;171884;TO;Sandolândia;-12.53;-49.92
171884;-12.53;-49.92;;;;;171886;TO;Santa Fé do Araguaia;-7.15;-48.72
171886;-7.15;-48.72;;;;;171888;TO;Santa Maria do Tocantins;-8.79;-47.79
171888;-8.79;-47.79;;;;;171889;TO;Santa Rita do Tocantins;-10.86;-48.91
171889;-10.86;-48.91;;;;;171890;TO;Santa Rosa do Tocantins;-11.44;-48.12
171890;-11.44;-48.12;;;;;171900;TO;Santa Tereza do Tocantins;-10.28;-47.8
171900;-10.28;-47.8;;;;;172000;TO;Santa Terezinha do Tocantins;-6.43;-47.67
172000;-6.43;-47.67;;;;;172010;TO;São Bento do Tocantins;-5.91;-48.06
172010;-5.91;-48.06;;;;;172015;TO;São Félix do Tocantins;-10.16;-46.65
172015;-10.16;-46.65;;;;;172020;TO;São Miguel do Tocantins;-5.55;-47.57
172020;-5.55;-47.57;;;;;172025;TO;São Salvador do Tocantins;-12.74;-48.23
172025;-12.74;-48.23;;;;;172030;TO;São Sebastião do Tocantins;-5.25;-48.2
172030;-5.25;-48.2;;;;;172049;TO;São Valério;-11.97;-48.23
172049;-11.97;-48.23;;;;;172065;TO;Silvanópolis;-11.14;-48.16
172065;-11.14;-48.16;;;;;172080;TO;Sítio Novo do Tocantins;-5.6;-47.63
172080;-5.6;-47.63;;;;;172085;TO;Sucupira;-11.99;-48.97
172085;-11.99;-48.97;;;;;172090;TO;Taguatinga;-12.4;-46.43
172090;-12.4;-46.43;;;;;172093;TO;Taipas do Tocantins;-12.18;-46.98
172093;-12.18;-46.98;;;;;172097;TO;Talismã;-12.79;-49.09
172097;-12.79;-49.09;;;;;172100;TO;Palmas;-10.16;-48.33
172100;-10.16;-48.33;;;;;172110;TO;Tocantínia;-9.56;-48.37
172110;-9.56;-48.37;;;;;172120;TO;Tocantinópolis;-6.32;-47.41
172120;-6.32;-47.41;;;;;172125;TO;Tupirama;-8.97;-48.18
172125;-8.97;-48.18;;;;;172130;TO;Tupiratins;-8.39;-48.11
172130;-8.39;-48.11;;;;;172208;TO;Wanderlândia;-6.84;-47.96
172208;-6.84;-47.96;;;;;172210;TO;Xambioá;-6.41;-48.53
172210;-6.41;-48.53;;;;;210005;MA;Açailândia;-4.94;-47.5
210005;-4.94;-47.5;;;;;210010;MA;Afonso Cunha;-4.13;-43.32
210010;-4.13;-43.32;;;;;210015;MA;Água Doce do Maranhão;-2.84;-42.11
210015;-2.84;-42.11;;;;;210020;MA;Alcântara;-2.4;-44.41
210020;-2.4;-44.41;;;;;210030;MA;Aldeias Altas;-4.62;-43.47
210030;-4.62;-43.47;;;;;210040;MA;Altamira do Maranhão;-4.16;-45.47
210040;-4.16;-45.47;;;;;210043;MA;Alto Alegre do Maranhão;-4.21;-44.44
210043;-4.21;-44.44;;;;;210047;MA;Alto Alegre do Pindaré;-3.69;-45.9
210047;-3.69;-45.9;;;;;210050;MA;Alto Parnaíba;-9.11;-45.93
210050;-9.11;-45.93;;;;;210055;MA;Amapá do Maranhão;-1.67;-46
210055;-1.67;-46;;;;;210060;MA;Amarante do Maranhão;-5.56;-46.74
210060;-5.56;-46.74;;;;;210070;MA;Anajatuba;-3.26;-44.61
210070;-3.26;-44.61;;;;;210080;MA;Anapurus;-3.67;-43.11
210080;-3.67;-43.11;;;;;210083;MA;Apicum-Açu;-1.46;-45.1
210083;-1.46;-45.1;;;;;210087;MA;Araguanã;-2.95;-45.66
210087;-2.95;-45.66;;;;;210090;MA;Araioses;-2.89;-41.9
210090;-2.89;-41.9;;;;;210095;MA;Arame;-4.73;-45.9
210095;-4.73;-45.9;;;;;210100;MA;Arari;-3.45;-44.77
210100;-3.45;-44.77;;;;;210110;MA;Axixá;-2.83;-44.05
210110;-2.83;-44.05;;;;;210120;MA;Bacabal;-4.22;-44.77
210120;-4.22;-44.77;;;;;210125;MA;Bacabeira;-2.97;-44.31
210125;-2.97;-44.31;;;;;210130;MA;Bacuri;-1.7;-45.13
210130;-1.7;-45.13;;;;;210135;MA;Bacurituba;-2.7;-44.73
210135;-2.7;-44.73;;;;;210140;MA;Balsas;-7.53;-46.03
210140;-7.53;-46.03;;;;;210150;MA;Barão de Grajaú;-6.75;-43.02
210150;-6.75;-43.02;;;;;210160;MA;Barra do Corda;-5.5;-45.24
210160;-5.5;-45.24;;;;;210170;MA;Barreirinhas;-2.74;-42.82
210170;-2.74;-42.82;;;;;210173;MA;Belágua;-3.15;-43.5
210173;-3.15;-43.5;;;;;210177;MA;Bela Vista do Maranhão;-3.73;-45.31
210177;-3.73;-45.31;;;;;210180;MA;Benedito Leite;-7.22;-44.55
210180;-7.22;-44.55;;;;;210190;MA;Bequimão;-2.44;-44.78
210190;-2.44;-44.78;;;;;210193;MA;Bernardo do Mearim;-4.58;-44.76
210193;-4.58;-44.76;;;;;210197;MA;Boa Vista do Gurupi;-1.78;-46.3
210197;-1.78;-46.3;;;;;210200;MA;Bom Jardim;-3.56;-45.99
210200;-3.56;-45.99;;;;;210203;MA;Bom Jesus das Selvas;-4.42;-46.76
210203;-4.42;-46.76;;;;;210207;MA;Bom Lugar;-4.21;-45.03
210207;-4.21;-45.03;;;;;210210;MA;Brejo;-3.68;-42.75
210210;-3.68;-42.75;;;;;210215;MA;Brejo de Areia;-4.33;-45.58
210215;-4.33;-45.58;;;;;210220;MA;Buriti;-3.94;-42.92
210220;-3.94;-42.92;;;;;210230;MA;Buriti Bravo;-5.83;-43.83
210230;-5.83;-43.83;;;;;210232;MA;Buriticupu;-4.34;-46.4
210232;-4.34;-46.4;;;;;210235;MA;Buritirana;-5.59;-47.01
210235;-5.59;-47.01;;;;;210237;MA;Cachoeira Grande;-2.92;-44.05
210237;-2.92;-44.05;;;;;210240;MA;Cajapió;-2.88;-44.67
210240;-2.88;-44.67;;;;;210250;MA;Cajari;-3.32;-45.01
210250;-3.32;-45.01;;;;;210255;MA;Campestre do Maranhão;-6.17;-47.36
210255;-6.17;-47.36;;;;;210260;MA;Cândido Mendes;-1.44;-45.71
210260;-1.44;-45.71;;;;;210270;MA;Cantanhede;-3.63;-44.37
210270;-3.63;-44.37;;;;;210275;MA;Capinzal do Norte;-4.72;-44.32
210275;-4.72;-44.32;;;;;210280;MA;Carolina;-7.33;-47.46
210280;-7.33;-47.46;;;;;210290;MA;Carutapera;-1.19;-46.02
210290;-1.19;-46.02;;;;;210300;MA;Caxias;-4.85;-43.35
210300;-4.85;-43.35;;;;;210310;MA;Cedral;-2;-44.53
210310;-2;-44.53;;;;;210312;MA;Central do Maranhão;-2.19;-44.82
210312;-2.19;-44.82;;;;;210315;MA;Centro do Guilherme;-2.36;-46
210315;-2.36;-46;;;;;210317;MA;Centro Novo do Maranhão;-2.1;-46.12
210317;-2.1;-46.12;;;;;210320;MA;Chapadinha;-3.74;-43.36
210320;-3.74;-43.36;;;;;210325;MA;Cidelândia;-5.17;-47.78
210325;-5.17;-47.78;;;;;210330;MA;Codó;-4.45;-43.88
210330;-4.45;-43.88;;;;;210340;MA;Coelho Neto;-4.25;-43.01
210340;-4.25;-43.01;;;;;210350;MA;Colinas;-6.02;-44.24
210350;-6.02;-44.24;;;;;210355;MA;Conceição do Lago-Açu;-3.83;-44.89
210355;-3.83;-44.89;;;;;210360;MA;Coroatá;-4.13;-44.12
210360;-4.13;-44.12;;;;;210370;MA;Cururupu;-1.82;-44.86
210370;-1.82;-44.86;;;;;210375;MA;Davinópolis;-5.55;-47.42
210375;-5.55;-47.42;;;;;210380;MA;Dom Pedro;-5.03;-44.43
210380;-5.03;-44.43;;;;;210390;MA;Duque Bacelar;-4.15;-42.94
210390;-4.15;-42.94;;;;;210400;MA;Esperantinópolis;-4.88;-44.68
210400;-4.88;-44.68;;;;;210405;MA;Estreito;-6.56;-47.45
210405;-6.56;-47.45;;;;;210407;MA;Feira Nova do Maranhão;-6.96;-46.68
210407;-6.96;-46.68;;;;;210408;MA;Fernando Falcão;-6.15;-44.89
210408;-6.15;-44.89;;;;;210409;MA;Formosa da Serra Negra;-6.43;-46.19
210409;-6.43;-46.19;;;;;210410;MA;Fortaleza dos Nogueiras;-6.96;-46.17
210410;-6.96;-46.17;;;;;210420;MA;Fortuna;-5.73;-44.15
210420;-5.73;-44.15;;;;;210430;MA;Godofredo Viana;-1.4;-45.77
210430;-1.4;-45.77;;;;;210440;MA;Gonçalves Dias;-5.15;-44.29
210440;-5.15;-44.29;;;;;210450;MA;Governador Archer;-5.02;-44.27
210450;-5.02;-44.27;;;;;210455;MA;Governador Edison Lobão;-5.74;-47.36
210455;-5.74;-47.36;;;;;210460;MA;Governador Eugênio Barros;-5.32;-44.24
210460;-5.32;-44.24;;;;;210462;MA;Governador Luiz Rocha;-5.46;-44.07
210462;-5.46;-44.07;;;;;210465;MA;Governador Newton Bello;-3.42;-45.67
210465;-3.42;-45.67;;;;;210467;MA;Governador Nunes Freire;-2.12;-45.88
210467;-2.12;-45.88;;;;;210470;MA;Graça Aranha;-5.4;-44.33
210470;-5.4;-44.33;;;;;210480;MA;Grajaú;-5.81;-46.13
210480;-5.81;-46.13;;;;;210490;MA;Guimarães;-2.13;-44.6
210490;-2.13;-44.6;;;;;210500;MA;Humberto de Campos;-2.59;-43.46
210500;-2.59;-43.46;;;;;210510;MA;Icatu;-2.77;-44.06
210510;-2.77;-44.06;;;;;210515;MA;Igarapé do Meio;-3.66;-45.22
210515;-3.66;-45.22;;;;;210520;MA;Igarapé Grande;-4.58;-44.85
210520;-4.58;-44.85;;;;;210530;MA;Imperatriz;-5.52;-47.47
210530;-5.52;-47.47;;;;;210535;MA;Itaipava do Grajaú;-5.14;-45.79
210535;-5.14;-45.79;;;;;210540;MA;Itapecuru Mirim;-3.39;-44.35
210540;-3.39;-44.35;;;;;210542;MA;Itinga do Maranhão;-4.44;-47.52
210542;-4.44;-47.52;;;;;210545;MA;Jatobá;-5.81;-44.22
210545;-5.81;-44.22;;;;;210547;MA;Jenipapo dos Vieiras;-5.37;-45.63
210547;-5.37;-45.63;;;;;210550;MA;João Lisboa;-5.44;-47.4
210550;-5.44;-47.4;;;;;210560;MA;Joselândia;-4.96;-44.7
210560;-4.96;-44.7;;;;;210565;MA;Junco do Maranhão;-1.84;-46.09
210565;-1.84;-46.09;;;;;210570;MA;Lago da Pedra;-4.57;-45.13
210570;-4.57;-45.13;;;;;210580;MA;Lago do Junco;-4.6;-45.04
210580;-4.6;-45.04;;;;;210590;MA;Lago Verde;-3.95;-44.82
210590;-3.95;-44.82;;;;;210592;MA;Lagoa do Mato;-6.04;-43.52
210592;-6.04;-43.52;;;;;210594;MA;Lago dos Rodrigues;-4.6;-44.97
210594;-4.6;-44.97;;;;;210596;MA;Lagoa Grande do Maranhão;-4.81;-45.33
210596;-4.81;-45.33;;;;;210598;MA;Lajeado Novo;-6.18;-47.03
210598;-6.18;-47.03;;;;;210600;MA;Lima Campos;-4.51;-44.46
210600;-4.51;-44.46;;;;;210610;MA;Loreto;-7.08;-45.14
210610;-7.08;-45.14;;;;;210620;MA;Luís Domingues;-1.26;-45.87
210620;-1.26;-45.87;;;;;210630;MA;Magalhães de Almeida;-3.39;-42.2
210630;-3.39;-42.2;;;;;210632;MA;Maracaçumé;-2.04;-45.95
210632;-2.04;-45.95;;;;;210635;MA;Marajá do Sena;-4.59;-45.57
210635;-4.59;-45.57;;;;;210637;MA;Maranhãozinho;-2.24;-45.85
210637;-2.24;-45.85;;;;;210640;MA;Mata Roma;-3.62;-43.11
210640;-3.62;-43.11;;;;;210650;MA;Matinha;-3.1;-45.03
210650;-3.1;-45.03;;;;;210660;MA;Matões;-5.51;-43.19
210660;-5.51;-43.19;;;;;210663;MA;Matões do Norte;-3.63;-44.55
210663;-3.63;-44.55;;;;;210667;MA;Milagres do Maranhão;-3.58;-42.6
210667;-3.58;-42.6;;;;;210670;MA;Mirador;-6.37;-44.36
210670;-6.37;-44.36;;;;;210675;MA;Miranda do Norte;-3.56;-44.58
210675;-3.56;-44.58;;;;;210680;MA;Mirinzal;-2.06;-44.78
210680;-2.06;-44.78;;;;;210690;MA;Monção;-3.49;-45.25
210690;-3.49;-45.25;;;;;210700;MA;Montes Altos;-5.83;-47.06
210700;-5.83;-47.06;;;;;210710;MA;Morros;-2.86;-44.03
210710;-2.86;-44.03;;;;;210720;MA;Nina Rodrigues;-3.46;-43.9
210720;-3.46;-43.9;;;;;210725;MA;Nova Colinas;-7.11;-46.25
210725;-7.11;-46.25;;;;;210730;MA;Nova Iorque;-6.73;-44.04
210730;-6.73;-44.04;;;;;210735;MA;Nova Olinda do Maranhão;-2.84;-45.69
210735;-2.84;-45.69;;;;;210740;MA;Olho d`Água das Cunhãs;-4.13;-45.11
210740;-4.13;-45.11;;;;;210745;MA;Olinda Nova do Maranhão;-2.99;-44.99
210745;-2.99;-44.99;;;;;210750;MA;Paço do Lumiar;-2.53;-44.1
210750;-2.53;-44.1;;;;;210760;MA;Palmeirândia;-2.64;-44.89
210760;-2.64;-44.89;;;;;210770;MA;Paraibano;-6.43;-43.98
210770;-6.43;-43.98;;;;;210780;MA;Parnarama;-5.68;-43.09
210780;-5.68;-43.09;;;;;210790;MA;Passagem Franca;-6.17;-43.78
210790;-6.17;-43.78;;;;;210800;MA;Pastos Bons;-6.6;-44.07
210800;-6.6;-44.07;;;;;210805;MA;Paulino Neves;-2.71;-42.53
210805;-2.71;-42.53;;;;;210810;MA;Paulo Ramos;-4.44;-45.23
210810;-4.44;-45.23;;;;;210820;MA;Pedreiras;-4.57;-44.59
210820;-4.57;-44.59;;;;;210825;MA;Pedro do Rosário;-2.97;-45.34
210825;-2.97;-45.34;;;;;210830;MA;Penalva;-3.29;-45.17
210830;-3.29;-45.17;;;;;210840;MA;Peri Mirim;-2.57;-44.85
210840;-2.57;-44.85;;;;;210845;MA;Peritoró;-4.38;-44.33
210845;-4.38;-44.33;;;;;210850;MA;Pindaré-Mirim;-3.6;-45.34
210850;-3.6;-45.34;;;;;210860;MA;Pinheiro;-2.52;-45.08
210860;-2.52;-45.08;;;;;210870;MA;Pio XII;-3.89;-45.16
210870;-3.89;-45.16;;;;;210880;MA;Pirapemas;-3.72;-44.22
210880;-3.72;-44.22;;;;;210890;MA;Poção de Pedras;-4.74;-44.94
210890;-4.74;-44.94;;;;;210900;MA;Porto Franco;-6.33;-47.39
210900;-6.33;-47.39;;;;;210905;MA;Porto Rico do Maranhão;-1.89;-44.6
210905;-1.89;-44.6;;;;;210910;MA;Presidente Dutra;-5.28;-44.49
210910;-5.28;-44.49;;;;;210920;MA;Presidente Juscelino;-2.92;-44.06
210920;-2.92;-44.06;;;;;210923;MA;Presidente Médici;-2.38;-45.81
210923;-2.38;-45.81;;;;;210927;MA;Presidente Sarney;-2.59;-45.36
210927;-2.59;-45.36;;;;;210930;MA;Presidente Vargas;-3.4;-44.02
210930;-3.4;-44.02;;;;;210940;MA;Primeira Cruz;-2.5;-43.43
210940;-2.5;-43.43;;;;;210945;MA;Raposa;-2.42;-44.1
210945;-2.42;-44.1;;;;;210950;MA;Riachão;-7.36;-46.61
210950;-7.36;-46.61;;;;;210955;MA;Ribamar Fiquene;-5.92;-47.38
210955;-5.92;-47.38;;;;;210960;MA;Rosário;-2.93;-44.23
210960;-2.93;-44.23;;;;;210970;MA;Sambaíba;-7.13;-45.34
210970;-7.13;-45.34;;;;;210975;MA;Santa Filomena do Maranhão;-5.5;-44.56
210975;-5.5;-44.56;;;;;210980;MA;Santa Helena;-2.23;-45.29
210980;-2.23;-45.29;;;;;210990;MA;Santa Inês;-3.66;-45.38
210990;-3.66;-45.38;;;;;211000;MA;Santa Luzia;-4.06;-45.68
211000;-4.06;-45.68;;;;;211003;MA;Santa Luzia do Paruá;-2.62;-45.77
211003;-2.62;-45.77;;;;;211010;MA;Santa Quitéria do Maranhão;-3.51;-42.54
211010;-3.51;-42.54;;;;;211020;MA;Santa Rita;-3.14;-44.32
211020;-3.14;-44.32;;;;;211023;MA;Santana do Maranhão;-3.11;-42.41
211023;-3.11;-42.41;;;;;211027;MA;Santo Amaro do Maranhão;-2.5;-43.25
211027;-2.5;-43.25;;;;;211030;MA;Santo Antônio dos Lopes;-4.86;-44.36
211030;-4.86;-44.36;;;;;211040;MA;São Benedito do Rio Preto;-3.33;-43.52
211040;-3.33;-43.52;;;;;211050;MA;São Bento;-2.69;-44.82
211050;-2.69;-44.82;;;;;211060;MA;São Bernardo;-3.36;-42.41
211060;-3.36;-42.41;;;;;211065;MA;São Domingos do Azeitão;-6.8;-44.64
211065;-6.8;-44.64;;;;;211070;MA;São Domingos do Maranhão;-5.57;-44.38
211070;-5.57;-44.38;;;;;211080;MA;São Félix de Balsas;-7.08;-44.81
211080;-7.08;-44.81;;;;;211085;MA;São Francisco do Brejão;-5.12;-47.38
211085;-5.12;-47.38;;;;;211090;MA;São Francisco do Maranhão;-6.25;-42.85
211090;-6.25;-42.85;;;;;211100;MA;São João Batista;-2.95;-44.8
211100;-2.95;-44.8;;;;;211102;MA;São João do Carú;-3.55;-46.25
211102;-3.55;-46.25;;;;;211105;MA;São João do Paraíso;-6.46;-47.05
211105;-6.46;-47.05;;;;;211107;MA;São João do Soter;-5.11;-43.81
211107;-5.11;-43.81;;;;;211110;MA;São João dos Patos;-6.49;-43.7
211110;-6.49;-43.7;;;;;211120;MA;São José de Ribamar;-2.56;-44.05
211120;-2.56;-44.05;;;;;211125;MA;São José dos Basílios;-5.05;-44.58
211125;-5.05;-44.58;;;;;211130;MA;São Luís;-2.52;-44.3
211130;-2.52;-44.3;;;;;211140;MA;São Luís Gonzaga do Maranhão;-4.38;-44.66
211140;-4.38;-44.66;;;;;211150;MA;São Mateus do Maranhão;-4.03;-44.47
211150;-4.03;-44.47;;;;;211153;MA;São Pedro da Água Branca;-5.08;-48.42
211153;-5.08;-48.42;;;;;211157;MA;São Pedro dos Crentes;-6.82;-46.53
211157;-6.82;-46.53;;;;;211160;MA;São Raimundo das Mangabeiras;-7.02;-45.48
211160;-7.02;-45.48;;;;;211163;MA;São Raimundo do Doca Bezerra;-5.1;-45.07
211163;-5.1;-45.07;;;;;211167;MA;São Roberto;-5.02;-44.99
211167;-5.02;-44.99;;;;;211170;MA;São Vicente Ferrer;-2.89;-44.88
211170;-2.89;-44.88;;;;;211172;MA;Satubinha;-4.03;-45.23
211172;-4.03;-45.23;;;;;211174;MA;Senador Alexandre Costa;-5.25;-44.05
211174;-5.25;-44.05;;;;;211176;MA;Senador La Rocque;-5.44;-47.29
211176;-5.44;-47.29;;;;;211178;MA;Serrano do Maranhão;-1.85;-45.12
211178;-1.85;-45.12;;;;;211180;MA;Sítio Novo;-5.87;-46.69
211180;-5.87;-46.69;;;;;211190;MA;Sucupira do Norte;-6.47;-44.19
211190;-6.47;-44.19;;;;;211195;MA;Sucupira do Riachão;-6.41;-43.54
211195;-6.41;-43.54;;;;;211200;MA;Tasso Fragoso;-8.47;-45.74
211200;-8.47;-45.74;;;;;211210;MA;Timbiras;-4.25;-43.94
211210;-4.25;-43.94;;;;;211220;MA;Timon;-5.09;-42.83
211220;-5.09;-42.83;;;;;211223;MA;Trizidela do Vale;-4.53;-44.62
211223;-4.53;-44.62;;;;;211227;MA;Tufilândia;-3.72;-45.55
211227;-3.72;-45.55;;;;;211230;MA;Tuntum;-5.25;-44.64
211230;-5.25;-44.64;;;;;211240;MA;Turiaçu;-1.66;-45.37
211240;-1.66;-45.37;;;;;211245;MA;Turilândia;-2.2;-45.34
211245;-2.2;-45.34;;;;;211250;MA;Tutóia;-2.76;-42.27
211250;-2.76;-42.27;;;;;211260;MA;Urbano Santos;-3.2;-43.4
211260;-3.2;-43.4;;;;;211270;MA;Vargem Grande;-3.54;-43.91
211270;-3.54;-43.91;;;;;211280;MA;Viana;-3.22;-45
211280;-3.22;-45;;;;;211285;MA;Vila Nova dos Martírios;-5.18;-48.13
211285;-5.18;-48.13;;;;;211290;MA;Vitória do Mearim;-3.46;-44.87
211290;-3.46;-44.87;;;;;211300;MA;Vitorino Freire;-4.28;-45.25
211300;-4.28;-45.25;;;;;211400;MA;Zé Doca;-3.24;-45.82
211400;-3.24;-45.82;;;;;220005;PI;Acauã;-8.21;-41.08
220005;-8.21;-41.08;;;;;220010;PI;Agricolândia;-5.79;-42.66
220010;-5.79;-42.66;;;;;220020;PI;Água Branca;-5.88;-42.63
220020;-5.88;-42.63;;;;;220025;PI;Alagoinha do Piauí;-7;-40.93
220025;-7;-40.93;;;;;220027;PI;Alegrete do Piauí;-7.24;-40.85
220027;-7.24;-40.85;;;;;220030;PI;Alto Longá;-5.25;-42.2
220030;-5.25;-42.2;;;;;220040;PI;Altos;-5.03;-42.46
220040;-5.03;-42.46;;;;;220045;PI;Alvorada do Gurguéia;-8.42;-43.77
220045;-8.42;-43.77;;;;;220050;PI;Amarante;-6.24;-42.85
220050;-6.24;-42.85;;;;;220060;PI;Angical do Piauí;-6.08;-42.73
220060;-6.08;-42.73;;;;;220070;PI;Anísio de Abreu;-9.18;-43.04
220070;-9.18;-43.04;;;;;220080;PI;Antônio Almeida;-7.21;-44.19
220080;-7.21;-44.19;;;;;220090;PI;Aroazes;-6.11;-41.79
220090;-6.11;-41.79;;;;;220100;PI;Arraial;-6.65;-42.53
220095;-7.27;-41.56;;;;;220105;PI;Assunção do Piauí;-5.19;-41.04
220100;-6.65;-42.53;;;;;220110;PI;Avelino Lopes;-10.13;-43.94
220105;-5.19;-41.04;;;;;220115;PI;Baixa Grande do Ribeiro;-7.84;-45.21
220110;-10.13;-43.94;;;;;220117;PI;Barra d`Alcântara;-6.51;-42.11
220115;-7.84;-45.21;;;;;220120;PI;Barras;-4.24;-42.29
220117;-6.51;-42.11;;;;;220130;PI;Barreiras do Piauí;-9.92;-45.47
220120;-4.24;-42.29;;;;;220140;PI;Barro Duro;-5.81;-42.51
220130;-9.92;-45.47;;;;;220150;PI;Batalha;-4.02;-42.07
220140;-5.81;-42.51;;;;;220155;PI;Bela Vista do Piauí;-7.98;-41.86
220150;-4.02;-42.07;;;;;220157;PI;Belém do Piauí;-7.37;-40.97
220155;-7.98;-41.86;;;;;220160;PI;Beneditinos;-5.45;-42.36
220157;-7.37;-40.97;;;;;220170;PI;Bertolínia;-7.64;-43.95
220160;-5.45;-42.36;;;;;220173;PI;Betânia do Piauí;-8.14;-40.79
220170;-7.64;-43.95;;;;;220177;PI;Boa Hora;-4.41;-42.08
220173;-8.14;-40.79;;;;;220180;PI;Bocaina;-6.94;-41.32
220177;-4.41;-42.08;;;;;220190;PI;Bom Jesus;-9.07;-44.35
220180;-6.94;-41.32;;;;;220191;PI;Bom Princípio do Piauí;-3.19;-41.64
220190;-9.07;-44.35;;;;;220192;PI;Bonfim do Piauí;-9.16;-42.87
220191;-3.19;-41.64;;;;;220194;PI;Boqueirão do Piauí;-4.48;-42.07
220192;-9.16;-42.87;;;;;220196;PI;Brasileira;-4.13;-41.78
220194;-4.48;-42.07;;;;;220198;PI;Brejo do Piauí;-8.21;-42.82
220196;-4.13;-41.78;;;;;220200;PI;Buriti dos Lopes;-3.17;-41.86
220198;-8.21;-42.82;;;;;220202;PI;Buriti dos Montes;-5.31;-41.09
220200;-3.17;-41.86;;;;;220205;PI;Cabeceiras do Piauí;-4.47;-42.3
220202;-5.31;-41.09;;;;;220207;PI;Cajazeiras do Piauí;-6.76;-42.39
220205;-4.47;-42.3;;;;;220208;PI;Cajueiro da Praia;-2.92;-41.33
220207;-6.76;-42.39;;;;;220209;PI;Caldeirão Grande do Piauí;-7.33;-40.63
220208;-2.92;-41.33;;;;;220210;PI;Campinas do Piauí;-7.65;-41.88
220209;-7.33;-40.63;;;;;220211;PI;Campo Alegre do Fidalgo;-8.37;-41.83
220210;-7.65;-41.88;;;;;220213;PI;Campo Grande do Piauí;-7.13;-41.03
220211;-8.37;-41.83;;;;;220217;PI;Campo Largo do Piauí;-3.81;-42.62
220213;-7.13;-41.03;;;;;220220;PI;Campo Maior;-4.82;-42.16
220217;-3.81;-42.62;;;;;220225;PI;Canavieira;-7.68;-43.72
220220;-4.82;-42.16;;;;;220230;PI;Canto do Buriti;-8.1;-42.94
220225;-7.68;-43.72;;;;;220240;PI;Capitão de Campos;-4.45;-41.94
220230;-8.1;-42.94;;;;;220245;PI;Capitão Gervásio Oliveira;-8.48;-41.81
220240;-4.45;-41.94;;;;;220250;PI;Caracol;-9.27;-43.33
220245;-8.48;-41.81;;;;;220253;PI;Caraúbas do Piauí;-3.47;-41.84
220250;-9.27;-43.33;;;;;220255;PI;Caridade do Piauí;-7.73;-40.99
220253;-3.47;-41.84;;;;;220260;PI;Castelo do Piauí;-5.32;-41.55
220255;-7.73;-40.99;;;;;220265;PI;Caxingó;-3.41;-41.89
220260;-5.32;-41.55;;;;;220270;PI;Cocal;-3.47;-41.55
220265;-3.41;-41.89;;;;;220271;PI;Cocal de Telha;-4.55;-41.97
220270;-3.47;-41.55;;;;;220272;PI;Cocal dos Alves;-3.72;-41.44
220271;-4.55;-41.97;;;;;220273;PI;Coivaras;-5.09;-42.2
220272;-3.72;-41.44;;;;;220275;PI;Colônia do Gurguéia;-8.18;-43.79
220273;-5.09;-42.2;;;;;220277;PI;Colônia do Piauí;-7.23;-42.17
220275;-8.18;-43.79;;;;;220280;PI;Conceição do Canindé;-7.87;-41.59
220277;-7.23;-42.17;;;;;220285;PI;Coronel José Dias;-8.81;-42.51
220280;-7.87;-41.59;;;;;220290;PI;Corrente;-10.44;-45.16
220285;-8.81;-42.51;;;;;220300;PI;Cristalândia do Piauí;-10.65;-45.18
220290;-10.44;-45.16;;;;;220310;PI;Cristino Castro;-8.81;-44.22
220300;-10.65;-45.18;;;;;220320;PI;Curimatá;-10.03;-44.3
220310;-8.81;-44.22;;;;;220323;PI;Currais;-9;-44.41
220320;-10.03;-44.3;;;;;220325;PI;Curralinhos;-5.58;-42.77
220323;-9;-44.41;;;;;220327;PI;Curral Novo do Piauí;-7.83;-40.9
220325;-5.58;-42.77;;;;;220330;PI;Demerval Lobão;-5.35;-42.67
220327;-7.83;-40.9;;;;;220335;PI;Dirceu Arcoverde;-9.33;-42.42
220330;-5.35;-42.67;;;;;220340;PI;Dom Expedito Lopes;-6.95;-41.64
220335;-9.33;-42.42;;;;;220342;PI;Domingos Mourão;-4.25;-41.27
220340;-6.95;-41.64;;;;;220345;PI;Dom Inocêncio;-9;-41.97
220342;-4.25;-41.27;;;;;220350;PI;Elesbão Veloso;-6.2;-42.13
220345;-9;-41.97;;;;;220360;PI;Eliseu Martins;-8.09;-43.66
220350;-6.2;-42.13;;;;;220370;PI;Esperantina;-3.9;-42.23
220360;-8.09;-43.66;;;;;220375;PI;Fartura do Piauí;-9.48;-42.79
220370;-3.9;-42.23;;;;;220380;PI;Flores do Piauí;-7.79;-42.92
220375;-9.48;-42.79;;;;;220385;PI;Floresta do Piauí;-7.46;-41.79
220380;-7.79;-42.92;;;;;220390;PI;Floriano;-6.76;-43.02
220385;-7.46;-41.79;;;;;220400;PI;Francinópolis;-6.39;-42.26
220390;-6.76;-43.02;;;;;220410;PI;Francisco Ayres;-6.62;-42.69
220400;-6.39;-42.26;;;;;220415;PI;Francisco Macedo;-7.33;-40.78
220410;-6.62;-42.69;;;;;220420;PI;Francisco Santos;-6.99;-41.13
220415;-7.33;-40.78;;;;;220430;PI;Fronteiras;-7.08;-40.61
220420;-6.99;-41.13;;;;;220435;PI;Geminiano;-7.15;-41.36
220430;-7.08;-40.61;;;;;220440;PI;Gilbués;-9.83;-45.34
220435;-7.15;-41.36;;;;;220450;PI;Guadalupe;-6.78;-43.56
220440;-9.83;-45.34;;;;;220455;PI;Guaribas;-9.39;-43.68
220450;-6.78;-43.56;;;;;220460;PI;Hugo Napoleão;-5.98;-42.55
220455;-9.39;-43.68;;;;;220465;PI;Ilha Grande;-2.85;-41.82
220460;-5.98;-42.55;;;;;220470;PI;Inhuma;-6.66;-41.7
220465;-2.85;-41.82;;;;;220480;PI;Ipiranga do Piauí;-6.82;-41.74
220470;-6.66;-41.7;;;;;220490;PI;Isaías Coelho;-7.73;-41.67
220480;-6.82;-41.74;;;;;220500;PI;Itainópolis;-7.44;-41.47
220490;-7.73;-41.67;;;;;220510;PI;Itaueira;-7.6;-43.02
220500;-7.44;-41.47;;;;;220515;PI;Jacobina do Piauí;-7.93;-41.2
220510;-7.6;-43.02;;;;;220520;PI;Jaicós;-7.35;-41.13
220515;-7.93;-41.2;;;;;220525;PI;Jardim do Mulato;-6.09;-42.63
220520;-7.35;-41.13;;;;;220527;PI;Jatobá do Piauí;-4.77;-41.81
220525;-6.09;-42.63;;;;;220530;PI;Jerumenha;-7.08;-43.5
220527;-4.77;-41.81;;;;;220535;PI;João Costa;-8.51;-42.41
220530;-7.08;-43.5;;;;;220540;PI;Joaquim Pires;-3.5;-42.19
220535;-8.51;-42.41;;;;;220545;PI;Joca Marques;-3.47;-42.42
220540;-3.5;-42.19;;;;;220550;PI;José de Freitas;-4.75;-42.57
220545;-3.47;-42.42;;;;;220551;PI;Juazeiro do Piauí;-5.17;-41.7
220550;-4.75;-42.57;;;;;220552;PI;Júlio Borges;-10.32;-44.23
220551;-5.17;-41.7;;;;;220553;PI;Jurema;-9.23;-43.12
220552;-10.32;-44.23;;;;;220554;PI;Lagoinha do Piauí;-5.83;-42.62
220553;-9.23;-43.12;;;;;220555;PI;Lagoa Alegre;-4.51;-42.62
220554;-5.83;-42.62;;;;;220556;PI;Lagoa do Barro do Piauí;-8.47;-41.52
220555;-4.51;-42.62;;;;;220557;PI;Lagoa de São Francisco;-4.39;-41.6
220556;-8.47;-41.52;;;;;220558;PI;Lagoa do Piauí;-5.41;-42.64
220557;-4.39;-41.6;;;;;220559;PI;Lagoa do Sítio;-6.51;-41.58
220558;-5.41;-42.64;;;;;220560;PI;Landri Sales;-7.26;-43.93
220559;-6.51;-41.58;;;;;220570;PI;Luís Correia;-2.87;-41.66
220560;-7.26;-43.93;;;;;220580;PI;Luzilândia;-3.45;-42.36
220570;-2.87;-41.66;;;;;220585;PI;Madeiro;-3.48;-42.5
220580;-3.45;-42.36;;;;;220590;PI;Manoel Emídio;-8.01;-43.87
220585;-3.48;-42.5;;;;;220595;PI;Marcolândia;-7.44;-40.66
220590;-8.01;-43.87;;;;;220600;PI;Marcos Parente;-7.12;-43.89
220595;-7.44;-40.66;;;;;220605;PI;Massapê do Piauí;-7.46;-41.12
220600;-7.12;-43.89;;;;;220610;PI;Matias Olímpio;-3.71;-42.55
220605;-7.46;-41.12;;;;;220620;PI;Miguel Alves;-4.16;-42.89
220610;-3.71;-42.55;;;;;220630;PI;Miguel Leão;-5.68;-42.73
220620;-4.16;-42.89;;;;;220635;PI;Milton Brandão;-4.68;-41.42
220630;-5.68;-42.73;;;;;220640;PI;Monsenhor Gil;-5.56;-42.6
220635;-4.68;-41.42;;;;;220650;PI;Monsenhor Hipólito;-6.99;-41.02
220640;-5.56;-42.6;;;;;220660;PI;Monte Alegre do Piauí;-9.75;-45.3
220650;-6.99;-41.02;;;;;220665;PI;Morro Cabeça no Tempo;-9.72;-43.9
220660;-9.75;-45.3;;;;;220667;PI;Morro do Chapéu do Piauí;-3.74;-42.31
220665;-9.72;-43.9;;;;;220669;PI;Murici dos Portelas;-3.31;-42.09
220667;-3.74;-42.31;;;;;220670;PI;Nazaré do Piauí;-6.97;-42.67
220669;-3.31;-42.09;;;;;220675;PI;Nossa Senhora de Nazaré;-4.63;-42.17
220670;-6.97;-42.67;;;;;220680;PI;Nossa Senhora dos Remédios;-3.97;-42.62
220672;-5.35;-42.81;;;;;220690;PI;Novo Oriente do Piauí;-6.44;-41.93
220675;-4.63;-42.17;;;;;220695;PI;Novo Santo Antônio;-5.28;-41.93
220680;-3.97;-42.62;;;;;220700;PI;Oeiras;-7.02;-42.13
220690;-6.44;-41.93;;;;;220710;PI;Olho d`Água do Piauí;-5.84;-42.57
220695;-5.28;-41.93;;;;;220720;PI;Padre Marcos;-7.35;-40.9
220700;-7.02;-42.13;;;;;220730;PI;Paes Landim;-7.77;-42.25
220710;-5.84;-42.57;;;;;220735;PI;Pajeú do Piauí;-7.85;-42.82
220720;-7.35;-40.9;;;;;220740;PI;Palmeira do Piauí;-8.72;-44.23
220730;-7.77;-42.25;;;;;220750;PI;Palmeirais;-5.97;-43.06
220735;-7.85;-42.82;;;;;220755;PI;Paquetá;-7.1;-41.7
220740;-8.72;-44.23;;;;;220760;PI;Parnaguá;-10.22;-44.63
220750;-5.97;-43.06;;;;;220770;PI;Parnaíba;-2.9;-41.77
220755;-7.1;-41.7;;;;;220775;PI;Passagem Franca do Piauí;-5.85;-42.43
220760;-10.22;-44.63;;;;;220777;PI;Patos do Piauí;-7.66;-41.24
220770;-2.9;-41.77;;;;;220779;PI;Pau d`Arco do Piauí;-5.26;-42.39
220775;-5.85;-42.43;;;;;220780;PI;Paulistana;-8.14;-41.15
220777;-7.66;-41.24;;;;;220785;PI;Pavussu;-7.96;-43.22
220779;-5.26;-42.39;;;;;220790;PI;Pedro II;-4.42;-41.45
220780;-8.14;-41.15;;;;;220793;PI;Pedro Laurentino;-8.06;-42.28
220785;-7.96;-43.22;;;;;220795;PI;Nova Santa Rita;-8.08;-42.05
220790;-4.42;-41.45;;;;;220800;PI;Picos;-7.07;-41.46
220793;-8.06;-42.28;;;;;220810;PI;Pimenteiras;-6.24;-41.41
220795;-8.08;-42.05;;;;;220820;PI;Pio IX;-6.83;-40.57
220800;-7.07;-41.46;;;;;220830;PI;Piracuruca;-3.92;-41.7
220810;-6.24;-41.41;;;;;220840;PI;Piripiri;-4.27;-41.77
220820;-6.83;-40.57;;;;;220850;PI;Porto;-3.89;-42.7
220830;-3.92;-41.7;;;;;220855;PI;Porto Alegre do Piauí;-6.96;-44.18
220840;-4.27;-41.77;;;;;220860;PI;Prata do Piauí;-5.66;-42.2
220850;-3.89;-42.7;;;;;220865;PI;Queimada Nova;-8.57;-41.41
220855;-6.96;-44.18;;;;;220870;PI;Redenção do Gurguéia;-9.48;-44.58
220860;-5.66;-42.2;;;;;220880;PI;Regeneração;-6.23;-42.68
220865;-8.57;-41.41;;;;;220885;PI;Riacho Frio;-10.12;-44.95
220870;-9.48;-44.58;;;;;220887;PI;Ribeira do Piauí;-7.69;-42.71
220880;-6.23;-42.68;;;;;220890;PI;Ribeiro Gonçalves;-7.55;-45.24
220885;-10.12;-44.95;;;;;220900;PI;Rio Grande do Piauí;-7.77;-43.14
220887;-7.69;-42.71;;;;;220910;PI;Santa Cruz do Piauí;-7.18;-41.76
220890;-7.55;-45.24;;;;;220915;PI;Santa Cruz dos Milagres;-5.8;-41.95
220900;-7.77;-43.14;;;;;220920;PI;Santa Filomena;-9.11;-45.92
220910;-7.18;-41.76;;;;;220930;PI;Santa Luz;-8.95;-44.12
220915;-5.8;-41.95;;;;;220935;PI;Santana do Piauí;-6.94;-41.51
220920;-9.11;-45.92;;;;;220937;PI;Santa Rosa do Piauí;-6.79;-42.28
220930;-8.95;-44.12;;;;;220940;PI;Santo Antônio de Lisboa;-6.98;-41.23
220935;-6.94;-41.51;;;;;220945;PI;Santo Antônio dos Milagres;-6.04;-42.7
220937;-6.79;-42.28;;;;;220950;PI;Santo Inácio do Piauí;-7.42;-41.91
220940;-6.98;-41.23;;;;;220955;PI;São Braz do Piauí;-8.96;-43
220945;-6.04;-42.7;;;;;220960;PI;São Félix do Piauí;-5.93;-42.11
220950;-7.42;-41.91;;;;;220965;PI;São Francisco de Assis do  Piauí;-8.23;-41.68
220955;-8.96;-43;;;;;220970;PI;São Francisco do Piauí;-7.25;-42.54
220960;-5.93;-42.11;;;;;220975;PI;São Gonçalo do Gurguéia;-10.02;-45.3
220965;-8.23;-41.68;;;;;220980;PI;São Gonçalo do Piauí;-5.99;-42.7
220970;-7.25;-42.54;;;;;220985;PI;São João da Canabrava;-6.81;-41.34
220975;-10.02;-45.3;;;;;220987;PI;São João da Fronteira;-3.95;-41.25
220980;-5.99;-42.7;;;;;220990;PI;São João da Serra;-5.51;-41.89
220985;-6.81;-41.34;;;;;220995;PI;São João da Varjota;-6.94;-41.88
220987;-3.95;-41.25;;;;;220997;PI;São João do Arraial;-3.81;-42.44
220990;-5.51;-41.89;;;;;221000;PI;São João do Piauí;-8.35;-42.24
220995;-6.94;-41.88;;;;;221005;PI;São José do Divino;-3.81;-41.83
220997;-3.81;-42.44;;;;;221010;PI;São José do Peixe;-7.49;-42.56
221000;-8.35;-42.24;;;;;221020;PI;São José do Piauí;-6.87;-41.47
221005;-3.81;-41.83;;;;;221030;PI;São Julião;-7.08;-40.82
221010;-7.49;-42.56;;;;;221035;PI;São Lourenço do Piauí;-9.16;-42.54
221020;-6.87;-41.47;;;;;221037;PI;São Luis do Piauí;-6.82;-41.32
221030;-7.08;-40.82;;;;;221038;PI;São Miguel da Baixa Grande;-5.86;-42.18
221035;-9.16;-42.54;;;;;221039;PI;São Miguel do Fidalgo;-7.58;-42.36
221037;-6.82;-41.32;;;;;221040;PI;São Miguel do Tapuio;-5.5;-41.32
221038;-5.86;-42.18;;;;;221050;PI;São Pedro do Piauí;-5.92;-42.71
221039;-7.58;-42.36;;;;;221060;PI;São Raimundo Nonato;-9.01;-42.69
221040;-5.5;-41.32;;;;;221062;PI;Sebastião Barros;-10.81;-44.83
221050;-5.92;-42.71;;;;;221063;PI;Sebastião Leal;-7.56;-44.06
221060;-9.01;-42.69;;;;;221065;PI;Sigefredo Pacheco;-4.91;-41.73
221062;-10.81;-44.83;;;;;221070;PI;Simões;-7.59;-40.81
221063;-7.56;-44.06;;;;;221080;PI;Simplício Mendes;-7.85;-41.9
221065;-4.91;-41.73;;;;;221090;PI;Socorro do Piauí;-7.86;-42.49
221070;-7.59;-40.81;;;;;221093;PI;Sussuapara;-7.04;-41.38
221080;-7.85;-41.9;;;;;221095;PI;Tamboril do Piauí;-8.39;-42.91
221090;-7.86;-42.49;;;;;221097;PI;Tanque do Piauí;-6.59;-42.28
221093;-7.04;-41.38;;;;;221100;PI;Teresina;-5.08;-42.8
221095;-8.39;-42.91;;;;;221110;PI;União;-4.58;-42.86
221097;-6.59;-42.28;;;;;221120;PI;Uruçuí;-7.22;-44.55
221100;-5.08;-42.8;;;;;221130;PI;Valença do Piauí;-6.4;-41.74
221110;-4.58;-42.86;;;;;221135;PI;Várzea Branca;-9.23;-42.96
221120;-7.22;-44.55;;;;;221140;PI;Várzea Grande;-6.54;-42.24
221130;-6.4;-41.74;;;;;221150;PI;Vera Mendes;-7.6;-41.48
221135;-9.23;-42.96;;;;;221160;PI;Vila Nova do Piauí;-7.13;-40.93
221140;-6.54;-42.24;;;;;221170;PI;Wall Ferraz;-7.23;-41.9
221150;-7.6;-41.48;;;;;230010;CE;Abaiara;-7.35;-39.04
221160;-7.13;-40.93;;;;;230015;CE;Acarape;-4.22;-38.7
221170;-7.23;-41.9;;;;;230020;CE;Acaraú;-2.88;-40.11
230010;-7.35;-39.04;;;;;230030;CE;Acopiara;-6.09;-39.45
230015;-4.22;-38.7;;;;;230040;CE;Aiuaba;-6.57;-40.12
230020;-2.88;-40.11;;;;;230050;CE;Alcântaras;-3.58;-40.54
230030;-6.09;-39.45;;;;;230060;CE;Altaneira;-7;-39.74
230040;-6.57;-40.12;;;;;230070;CE;Alto Santo;-5.52;-38.27
230050;-3.58;-40.54;;;;;230075;CE;Amontada;-3.36;-39.83
230060;-7;-39.74;;;;;230080;CE;Antonina do Norte;-6.77;-39.98
230070;-5.52;-38.27;;;;;230090;CE;Apuiarés;-3.94;-39.43
230075;-3.36;-39.83;;;;;230100;CE;Aquiraz;-3.9;-38.39
230080;-6.77;-39.98;;;;;230110;CE;Aracati;-4.56;-37.77
230090;-3.94;-39.43;;;;;230120;CE;Aracoiaba;-4.37;-38.81
230100;-3.9;-38.39;;;;;230125;CE;Ararendá;-4.75;-40.83
230110;-4.56;-37.77;;;;;230130;CE;Araripe;-7.21;-40.04
230120;-4.37;-38.81;;;;;230140;CE;Aratuba;-4.41;-39.04
230125;-4.75;-40.83;;;;;230150;CE;Arneiroz;-6.32;-40.16
230130;-7.21;-40.04;;;;;230160;CE;Assaré;-6.87;-39.87
230140;-4.41;-39.04;;;;;230170;CE;Aurora;-6.94;-38.96
230150;-6.32;-40.16;;;;;230180;CE;Baixio;-6.73;-38.71
230160;-6.87;-39.87;;;;;230185;CE;Banabuiú;-5.3;-38.92
230170;-6.94;-38.96;;;;;230190;CE;Barbalha;-7.3;-39.3
230180;-6.73;-38.71;;;;;230195;CE;Barreira;-4.28;-38.64
230185;-5.3;-38.92;;;;;230200;CE;Barro;-7.17;-38.78
230190;-7.3;-39.3;;;;;230205;CE;Barroquinha;-3.01;-41.13
230195;-4.28;-38.64;;;;;230210;CE;Baturité;-4.32;-38.88
230200;-7.17;-38.78;;;;;230220;CE;Beberibe;-4.17;-38.13
230205;-3.01;-41.13;;;;;230230;CE;Bela Cruz;-3.05;-40.16
230210;-4.32;-38.88;;;;;230240;CE;Boa Viagem;-5.12;-39.73
230220;-4.17;-38.13;;;;;230250;CE;Brejo Santo;-7.49;-38.98
230230;-3.05;-40.16;;;;;230260;CE;Camocim;-2.9;-40.84
230240;-5.12;-39.73;;;;;230270;CE;Campos Sales;-7.07;-40.37
230250;-7.49;-38.98;;;;;230280;CE;Canindé;-4.35;-39.31
230260;-2.9;-40.84;;;;;230290;CE;Capistrano;-4.46;-38.9
230270;-7.07;-40.37;;;;;230300;CE;Caridade;-4.23;-39.19
230280;-4.35;-39.31;;;;;230310;CE;Cariré;-3.95;-40.47
230290;-4.46;-38.9;;;;;230320;CE;Caririaçu;-7.04;-39.28
230300;-4.23;-39.19;;;;;230330;CE;Cariús;-6.53;-39.49
230310;-3.95;-40.47;;;;;230340;CE;Carnaubal;-4.16;-40.94
230320;-7.04;-39.28;;;;;230350;CE;Cascavel;-4.13;-38.23
230330;-6.53;-39.49;;;;;230360;CE;Catarina;-6.13;-39.87
230340;-4.16;-40.94;;;;;230365;CE;Catunda;-4.64;-40.2
230350;-4.13;-38.23;;;;;230370;CE;Caucaia;-3.73;-38.65
230360;-6.13;-39.87;;;;;230380;CE;Cedro;-6.6;-39.06
230365;-4.64;-40.2;;;;;230390;CE;Chaval;-3.03;-41.24
230370;-3.73;-38.65;;;;;230393;CE;Choró;-4.84;-39.14
230380;-6.6;-39.06;;;;;230395;CE;Chorozinho;-4.3;-38.49
230390;-3.03;-41.24;;;;;230400;CE;Coreaú;-3.53;-40.65
230393;-4.84;-39.14;;;;;230410;CE;Crateús;-5.17;-40.67
230395;-4.3;-38.49;;;;;230420;CE;Crato;-7.23;-39.4
230400;-3.53;-40.65;;;;;230423;CE;Croatá;-4.4;-40.91
230410;-5.17;-40.67;;;;;230425;CE;Cruz;-2.91;-40.17
230420;-7.23;-39.4;;;;;230426;CE;Deputado Irapuan Pinheiro;-5.91;-39.26
230423;-4.4;-40.91;;;;;230427;CE;Ererê;-6.03;-38.34
230425;-2.91;-40.17;;;;;230428;CE;Eusébio;-3.89;-38.45
230426;-5.91;-39.26;;;;;230430;CE;Farias Brito;-6.93;-39.56
230427;-6.03;-38.34;;;;;230435;CE;Forquilha;-3.79;-40.26
230428;-3.89;-38.45;;;;;230440;CE;Fortaleza;-3.71;-38.54
230430;-6.93;-39.56;;;;;230445;CE;Fortim;-4.45;-37.79
230435;-3.79;-40.26;;;;;230450;CE;Frecheirinha;-3.75;-40.81
230440;-3.71;-38.54;;;;;230460;CE;General Sampaio;-4.05;-39.45
230445;-4.45;-37.79;;;;;230465;CE;Graça;-4.04;-40.75
230450;-3.75;-40.81;;;;;230470;CE;Granja;-3.11;-40.82
230460;-4.05;-39.45;;;;;230480;CE;Granjeiro;-6.88;-39.21
230465;-4.04;-40.75;;;;;230490;CE;Groaíras;-3.91;-40.38
230470;-3.11;-40.82;;;;;230495;CE;Guaiúba;-4.03;-38.63
230480;-6.88;-39.21;;;;;230500;CE;Guaraciaba do Norte;-4.16;-40.74
230490;-3.91;-40.38;;;;;230510;CE;Guaramiranga;-4.26;-38.93
230495;-4.03;-38.63;;;;;230520;CE;Hidrolândia;-4.4;-40.43
230500;-4.16;-40.74;;;;;230523;CE;Horizonte;-4.09;-38.49
230510;-4.26;-38.93;;;;;230526;CE;Ibaretama;-4.8;-38.75
230520;-4.4;-40.43;;;;;230530;CE;Ibiapina;-3.92;-40.88
230523;-4.09;-38.49;;;;;230533;CE;Ibicuitinga;-4.97;-38.63
230526;-4.8;-38.75;;;;;230535;CE;Icapuí;-4.71;-37.35
230530;-3.92;-40.88;;;;;230540;CE;Icó;-6.4;-38.86
230533;-4.97;-38.63;;;;;230550;CE;Iguatu;-6.35;-39.29
230535;-4.71;-37.35;;;;;230560;CE;Independência;-5.39;-40.3
230540;-6.4;-38.86;;;;;230565;CE;Ipaporanga;-4.9;-40.75
230550;-6.35;-39.29;;;;;230570;CE;Ipaumirim;-6.78;-38.71
230560;-5.39;-40.3;;;;;230580;CE;Ipu;-4.32;-40.71
230565;-4.9;-40.75;;;;;230590;CE;Ipueiras;-4.54;-40.71
230570;-6.78;-38.71;;;;;230600;CE;Iracema;-5.81;-38.3
230580;-4.32;-40.71;;;;;230610;CE;Irauçuba;-3.74;-39.78
230590;-4.54;-40.71;;;;;230620;CE;Itaiçaba;-4.67;-37.82
230600;-5.81;-38.3;;;;;230625;CE;Itaitinga;-3.96;-38.52
230610;-3.74;-39.78;;;;;230630;CE;Itapagé;-3.68;-39.58
230620;-4.67;-37.82;;;;;230640;CE;Itapipoca;-3.49;-39.57
230625;-3.96;-38.52;;;;;230650;CE;Itapiúna;-4.56;-38.92
230630;-3.68;-39.58;;;;;230655;CE;Itarema;-2.92;-39.91
230640;-3.49;-39.57;;;;;230660;CE;Itatira;-4.52;-39.62
230650;-4.56;-38.92;;;;;230670;CE;Jaguaretama;-5.61;-38.76
230655;-2.92;-39.91;;;;;230680;CE;Jaguaribara;-5.65;-38.61
230660;-4.52;-39.62;;;;;230690;CE;Jaguaribe;-5.89;-38.62
230670;-5.61;-38.76;;;;;230700;CE;Jaguaruana;-4.83;-37.78
230680;-5.65;-38.61;;;;;230710;CE;Jardim;-7.58;-39.29
230690;-5.89;-38.62;;;;;230720;CE;Jati;-7.68;-39.01
230700;-4.83;-37.78;;;;;230725;CE;Jijoca de Jericoacoara;-2.79;-40.51
230710;-7.58;-39.29;;;;;230730;CE;Juazeiro do Norte;-7.21;-39.31
230720;-7.68;-39.01;;;;;230740;CE;Jucás;-6.52;-39.52
230725;-2.79;-40.51;;;;;230750;CE;Lavras da Mangabeira;-6.75;-38.97
230730;-7.21;-39.31;;;;;230760;CE;Limoeiro do Norte;-5.14;-38.09
230740;-6.52;-39.52;;;;;230763;CE;Madalena;-4.85;-39.57
230750;-6.75;-38.97;;;;;230765;CE;Maracanaú;-3.87;-38.62
230760;-5.14;-38.09;;;;;230770;CE;Maranguape;-3.89;-38.68
230763;-4.85;-39.57;;;;;230780;CE;Marco;-3.12;-40.14
230765;-3.87;-38.62;;;;;230790;CE;Martinópole;-3.22;-40.69
230770;-3.89;-38.68;;;;;230800;CE;Massapê;-3.52;-40.34
230780;-3.12;-40.14;;;;;230810;CE;Mauriti;-7.38;-38.77
230790;-3.22;-40.69;;;;;230820;CE;Meruoca;-3.54;-40.45
230800;-3.52;-40.34;;;;;230830;CE;Milagres;-7.31;-38.94
230810;-7.38;-38.77;;;;;230835;CE;Milhã;-5.67;-39.19
230820;-3.54;-40.45;;;;;230837;CE;Miraíma;-3.56;-39.97
230830;-7.31;-38.94;;;;;230840;CE;Missão Velha;-7.25;-39.14
230835;-5.67;-39.19;;;;;230850;CE;Mombaça;-5.74;-39.62
230837;-3.56;-39.97;;;;;230860;CE;Monsenhor Tabosa;-4.78;-40.06
230840;-7.25;-39.14;;;;;230870;CE;Morada Nova;-5.1;-38.37
230850;-5.74;-39.62;;;;;230880;CE;Moraújo;-3.46;-40.68
230860;-4.78;-40.06;;;;;230890;CE;Morrinhos;-3.22;-40.12
230870;-5.1;-38.37;;;;;230900;CE;Mucambo;-3.9;-40.74
230880;-3.46;-40.68;;;;;230910;CE;Mulungu;-4.3;-38.99
230890;-3.22;-40.12;;;;;230920;CE;Nova Olinda;-7.09;-39.68
230900;-3.9;-40.74;;;;;230930;CE;Nova Russas;-4.7;-40.56
230910;-4.3;-38.99;;;;;230940;CE;Novo Oriente;-5.53;-40.77
230920;-7.09;-39.68;;;;;230945;CE;Ocara;-4.49;-38.59
230930;-4.7;-40.56;;;;;230950;CE;Orós;-6.24;-38.91
230940;-5.53;-40.77;;;;;230960;CE;Pacajus;-4.17;-38.46
230945;-4.49;-38.59;;;;;230970;CE;Pacatuba;-3.98;-38.61
230950;-6.24;-38.91;;;;;230980;CE;Pacoti;-4.22;-38.92
230960;-4.17;-38.46;;;;;230990;CE;Pacujá;-3.98;-40.69
230970;-3.98;-38.61;;;;;231000;CE;Palhano;-4.74;-37.95
230980;-4.22;-38.92;;;;;231010;CE;Palmácia;-4.15;-38.84
230990;-3.98;-40.69;;;;;231020;CE;Paracuru;-3.41;-39.03
231000;-4.74;-37.95;;;;;231025;CE;Paraipaba;-3.43;-39.14
231010;-4.15;-38.84;;;;;231030;CE;Parambu;-6.21;-40.69
231020;-3.41;-39.03;;;;;231040;CE;Paramoti;-4.09;-39.23
231025;-3.43;-39.14;;;;;231050;CE;Pedra Branca;-5.45;-39.71
231030;-6.21;-40.69;;;;;231060;CE;Penaforte;-7.82;-39.07
231040;-4.09;-39.23;;;;;231070;CE;Pentecoste;-3.79;-39.27
231050;-5.45;-39.71;;;;;231080;CE;Pereiro;-6.04;-38.46
231060;-7.82;-39.07;;;;;231085;CE;Pindoretama;-4.02;-38.3
231070;-3.79;-39.27;;;;;231090;CE;Piquet Carneiro;-5.8;-39.41
231080;-6.04;-38.46;;;;;231095;CE;Pires Ferreira;-4.24;-40.64
231085;-4.02;-38.3;;;;;231100;CE;Poranga;-4.74;-40.92
231090;-5.8;-39.41;;;;;231110;CE;Porteiras;-7.53;-39.11
231095;-4.24;-40.64;;;;;231120;CE;Potengi;-7.09;-40.02
231100;-4.74;-40.92;;;;;231123;CE;Potiretama;-5.66;-38.25
231110;-7.53;-39.11;;;;;231126;CE;Quiterianópolis;-5.84;-40.7
231120;-7.09;-40.02;;;;;231130;CE;Quixadá;-4.97;-39.01
231123;-5.66;-38.25;;;;;231135;CE;Quixelô;-6.25;-39.2
231126;-5.84;-40.7;;;;;231140;CE;Quixeramobim;-5.19;-39.29
231130;-4.97;-39.01;;;;;231150;CE;Quixeré;-5.07;-37.98
231135;-6.25;-39.2;;;;;231160;CE;Redenção;-4.22;-38.73
231140;-5.19;-39.29;;;;;231170;CE;Reriutaba;-4.14;-40.58
231150;-5.07;-37.98;;;;;231180;CE;Russas;-4.94;-37.97
231160;-4.22;-38.73;;;;;231190;CE;Saboeiro;-6.54;-39.9
231170;-4.14;-40.58;;;;;231195;CE;Salitre;-7.28;-40.45
231180;-4.94;-37.97;;;;;231200;CE;Santana do Acaraú;-3.46;-40.21
231190;-6.54;-39.9;;;;;231210;CE;Santana do Cariri;-7.18;-39.73
231195;-7.28;-40.45;;;;;231220;CE;Santa Quitéria;-4.33;-40.15
231200;-3.46;-40.21;;;;;231230;CE;São Benedito;-4.04;-40.86
231210;-7.18;-39.73;;;;;231240;CE;São Gonçalo do Amarante;-3.6;-38.96
231220;-4.33;-40.15;;;;;231250;CE;São João do Jaguaribe;-5.27;-38.27
231230;-4.04;-40.86;;;;;231260;CE;São Luís do Curu;-3.67;-39.24
231240;-3.6;-38.96;;;;;231270;CE;Senador Pompeu;-5.58;-39.37
231250;-5.27;-38.27;;;;;231280;CE;Senador Sá;-3.35;-40.46
231260;-3.67;-39.24;;;;;231290;CE;Sobral;-3.67;-40.23
231270;-5.58;-39.37;;;;;231300;CE;Solonópole;-5.73;-39
231280;-3.35;-40.46;;;;;231310;CE;Tabuleiro do Norte;-5.24;-38.13
231290;-3.67;-40.23;;;;;231320;CE;Tamboril;-4.83;-40.32
231300;-5.73;-39;;;;;231325;CE;Tarrafas;-6.68;-39.76
231310;-5.24;-38.13;;;;;231330;CE;Tauá;-6;-40.29
231320;-4.83;-40.32;;;;;231335;CE;Tejuçuoca;-3.98;-39.58
231325;-6.68;-39.76;;;;;231340;CE;Tianguá;-3.73;-40.99
231330;-6;-40.29;;;;;231350;CE;Trairi;-3.27;-39.26
231335;-3.98;-39.58;;;;;231355;CE;Tururu;-3.58;-39.43
231340;-3.73;-40.99;;;;;231360;CE;Ubajara;-3.85;-40.92
231350;-3.27;-39.26;;;;;231370;CE;Umari;-6.64;-38.7
231355;-3.58;-39.43;;;;;231375;CE;Umirim;-3.67;-39.34
231360;-3.85;-40.92;;;;;231380;CE;Uruburetama;-3.62;-39.5
231370;-6.64;-38.7;;;;;231390;CE;Uruoca;-3.31;-40.55
231375;-3.67;-39.34;;;;;231395;CE;Varjota;-4.19;-40.47
231380;-3.62;-39.5;;;;;231400;CE;Várzea Alegre;-6.78;-39.29
231390;-3.31;-40.55;;;;;231410;CE;Viçosa do Ceará;-3.56;-41.09
231395;-4.19;-40.47;;;;;240010;RN;Acari;-6.43;-36.63
231400;-6.78;-39.29;;;;;240020;RN;Açu;-5.57;-36.9
231410;-3.56;-41.09;;;;;240030;RN;Afonso Bezerra;-5.49;-36.5
240010;-6.43;-36.63;;;;;240040;RN;Água Nova;-6.2;-38.29
240020;-5.57;-36.9;;;;;240050;RN;Alexandria;-6.41;-38.01
240030;-5.49;-36.5;;;;;240060;RN;Almino Afonso;-6.15;-37.76
240040;-6.2;-38.29;;;;;240070;RN;Alto do Rodrigues;-5.28;-36.76
240050;-6.41;-38.01;;;;;240080;RN;Angicos;-5.66;-36.6
240060;-6.15;-37.76;;;;;240090;RN;Antônio Martins;-6.21;-37.9
240070;-5.28;-36.76;;;;;240100;RN;Apodi;-5.66;-37.79
240080;-5.66;-36.6;;;;;240110;RN;Areia Branca;-4.95;-37.13
240090;-6.21;-37.9;;;;;240120;RN;Arês;-6.19;-35.15
240100;-5.66;-37.79;;;;;240130;RN;Augusto Severo;-5.86;-37.31
240110;-4.95;-37.13;;;;;240140;RN;Baía Formosa;-6.36;-35
240120;-6.19;-35.15;;;;;240145;RN;Baraúna;-5.07;-37.61
240130;-5.86;-37.31;;;;;240150;RN;Barcelona;-5.95;-35.92
240140;-6.36;-35;;;;;240160;RN;Bento Fernandes;-5.69;-35.81
240145;-5.07;-37.61;;;;;240165;RN;Bodó;-5.98;-36.41
240150;-5.95;-35.92;;;;;240170;RN;Bom Jesus;-5.98;-35.58
240160;-5.69;-35.81;;;;;240180;RN;Brejinho;-6.19;-35.35
240165;-5.98;-36.41;;;;;240185;RN;Caiçara do Norte;-5.07;-36.06
240170;-5.98;-35.58;;;;;240190;RN;Caiçara do Rio do Vento;-5.76;-35.99
240180;-6.19;-35.35;;;;;240200;RN;Caicó;-6.45;-37.09
240185;-5.07;-36.06;;;;;240210;RN;Campo Redondo;-6.24;-36.18
240190;-5.76;-35.99;;;;;240220;RN;Canguaretama;-6.38;-35.12
240200;-6.45;-37.09;;;;;240230;RN;Caraúbas;-5.79;-37.55
240210;-6.24;-36.18;;;;;240240;RN;Carnaúba dos Dantas;-6.55;-36.59
240220;-6.38;-35.12;;;;;240250;RN;Carnaubais;-5.34;-36.83
240230;-5.79;-37.55;;;;;240260;RN;Ceará-Mirim;-5.63;-35.42
240240;-6.55;-36.59;;;;;240270;RN;Cerro Corá;-6.04;-36.34
240250;-5.34;-36.83;;;;;240280;RN;Coronel Ezequiel;-6.38;-36.21
240260;-5.63;-35.42;;;;;240290;RN;Coronel João Pessoa;-6.26;-38.44
240270;-6.04;-36.34;;;;;240300;RN;Cruzeta;-6.41;-36.79
240280;-6.38;-36.21;;;;;240310;RN;Currais Novos;-6.26;-36.51
240290;-6.26;-38.44;;;;;240320;RN;Doutor Severiano;-6.09;-38.37
240300;-6.41;-36.79;;;;;240325;RN;Parnamirim;-5.91;-35.26
240310;-6.26;-36.51;;;;;240330;RN;Encanto;-6.11;-38.3
240320;-6.09;-38.37;;;;;240340;RN;Equador;-6.94;-36.71
240325;-5.91;-35.26;;;;;240350;RN;Espírito Santo;-6.33;-35.3
240330;-6.11;-38.3;;;;;240360;RN;Extremoz;-5.7;-35.3
240340;-6.94;-36.71;;;;;240370;RN;Felipe Guerra;-5.6;-37.68
240350;-6.33;-35.3;;;;;240375;RN;Fernando Pedroza;-5.69;-36.53
240360;-5.7;-35.3;;;;;240380;RN;Florânia;-6.12;-36.81
240370;-5.6;-37.68;;;;;240390;RN;Francisco Dantas;-6.07;-38.11
240375;-5.69;-36.53;;;;;240400;RN;Frutuoso Gomes;-6.15;-37.84
240380;-6.12;-36.81;;;;;240410;RN;Galinhos;-5.09;-36.27
240390;-6.07;-38.11;;;;;240420;RN;Goianinha;-6.26;-35.2
240400;-6.15;-37.84;;;;;240430;RN;Governador Dix-Sept Rosado;-5.45;-37.52
240410;-5.09;-36.27;;;;;240440;RN;Grossos;-4.98;-37.15
240420;-6.26;-35.2;;;;;240450;RN;Guamaré;-5.1;-36.31
240430;-5.45;-37.52;;;;;240460;RN;Ielmo Marinho;-5.82;-35.55
240440;-4.98;-37.15;;;;;240470;RN;Ipanguaçu;-5.49;-36.85
240450;-5.1;-36.31;;;;;240480;RN;Ipueira;-6.81;-37.19
240460;-5.82;-35.55;;;;;240485;RN;Itajá;-5.64;-36.87
240470;-5.49;-36.85;;;;;240490;RN;Itaú;-5.84;-37.99
240480;-6.81;-37.19;;;;;240500;RN;Jaçanã;-6.42;-36.2
240485;-5.64;-36.87;;;;;240510;RN;Jandaíra;-5.35;-36.12
240490;-5.84;-37.99;;;;;240520;RN;Janduís;-6.01;-37.4
240500;-6.42;-36.2;;;;;240530;RN;Januário Cicco;-6.15;-35.6
240510;-5.35;-36.12;;;;;240540;RN;Japi;-6.46;-35.94
240520;-6.01;-37.4;;;;;240550;RN;Jardim de Angicos;-5.65;-35.96
240530;-6.15;-35.6;;;;;240560;RN;Jardim de Piranhas;-6.37;-37.35
240540;-6.46;-35.94;;;;;240570;RN;Jardim do Seridó;-6.58;-36.77
240550;-5.65;-35.96;;;;;240580;RN;João Câmara;-5.53;-35.81
240560;-6.37;-37.35;;;;;240590;RN;João Dias;-6.27;-37.79
240570;-6.58;-36.77;;;;;240600;RN;José da Penha;-6.31;-38.28
240580;-5.53;-35.81;;;;;240610;RN;Jucurutu;-6.03;-37.02
240590;-6.27;-37.79;;;;;240615;RN;Jundiá;-6.27;-35.34
240600;-6.31;-38.28;;;;;240620;RN;Lagoa d`Anta;-6.39;-35.59
240610;-6.03;-37.02;;;;;240630;RN;Lagoa de Pedras;-6.14;-35.43
240615;-6.27;-35.34;;;;;240640;RN;Lagoa de Velhos;-6;-35.87
240620;-6.39;-35.59;;;;;240650;RN;Lagoa Nova;-6.09;-36.46
240630;-6.14;-35.43;;;;;240660;RN;Lagoa Salgada;-6.13;-35.49
240640;-6;-35.87;;;;;240670;RN;Lajes;-5.69;-36.24
240650;-6.09;-36.46;;;;;240680;RN;Lajes Pintadas;-6.15;-36.11
240660;-6.13;-35.49;;;;;240690;RN;Lucrécia;-6.11;-37.81
240670;-5.69;-36.24;;;;;240700;RN;Luís Gomes;-6.41;-38.38
240680;-6.15;-36.11;;;;;240710;RN;Macaíba;-5.85;-35.35
240690;-6.11;-37.81;;;;;240720;RN;Macau;-5.11;-36.63
240700;-6.41;-38.38;;;;;240725;RN;Major Sales;-6.4;-38.32
240710;-5.85;-35.35;;;;;240730;RN;Marcelino Vieira;-6.29;-38.16
240720;-5.11;-36.63;;;;;240740;RN;Martins;-6.08;-37.91
240725;-6.4;-38.32;;;;;240750;RN;Maxaranguape;-5.51;-35.26
240730;-6.29;-38.16;;;;;240760;RN;Messias Targino;-6.07;-37.51
240740;-6.08;-37.91;;;;;240770;RN;Montanhas;-6.48;-35.28
240750;-5.51;-35.26;;;;;240780;RN;Monte Alegre;-6.06;-35.33
240760;-6.07;-37.51;;;;;240790;RN;Monte das Gameleiras;-6.44;-35.78
240770;-6.48;-35.28;;;;;240800;RN;Mossoró;-5.18;-37.34
240780;-6.06;-35.33;;;;;240810;RN;Natal;-5.79;-35.2
240790;-6.44;-35.78;;;;;240820;RN;Nísia Floresta;-6.09;-35.2
240800;-5.18;-37.34;;;;;240830;RN;Nova Cruz;-6.47;-35.43
240810;-5.79;-35.2;;;;;240840;RN;Olho-d`Água do Borges;-5.95;-37.7
240820;-6.09;-35.2;;;;;240850;RN;Ouro Branco;-6.7;-36.94
240830;-6.47;-35.43;;;;;240860;RN;Paraná;-6.48;-38.31
240840;-5.95;-37.7;;;;;240870;RN;Paraú;-5.77;-37.1
240850;-6.7;-36.94;;;;;240880;RN;Parazinho;-5.22;-35.83
240860;-6.48;-38.31;;;;;240890;RN;Parelhas;-6.68;-36.65
240870;-5.77;-37.1;;;;;240895;RN;Rio do Fogo;-5.27;-35.38
240880;-5.22;-35.83;;;;;240910;RN;Passa e Fica;-6.43;-35.64
240890;-6.68;-36.65;;;;;240920;RN;Passagem;-6.27;-35.37
240895;-5.27;-35.38;;;;;240930;RN;Patu;-6.11;-37.63
240910;-6.43;-35.64;;;;;240933;RN;Santa Maria;-5.84;-35.69
240920;-6.27;-35.37;;;;;240940;RN;Pau dos Ferros;-6.11;-38.2
240930;-6.11;-37.63;;;;;240950;RN;Pedra Grande;-5.15;-35.87
240933;-5.84;-35.69;;;;;240960;RN;Pedra Preta;-5.58;-36.1
240940;-6.11;-38.2;;;;;240970;RN;Pedro Avelino;-5.52;-36.38
240950;-5.15;-35.87;;;;;240980;RN;Pedro Velho;-6.43;-35.22
240960;-5.58;-36.1;;;;;240990;RN;Pendências;-5.26;-36.72
240970;-5.52;-36.38;;;;;241000;RN;Pilões;-6.26;-38.04
240980;-6.43;-35.22;;;;;241010;RN;Poço Branco;-5.62;-35.66
240990;-5.26;-36.72;;;;;241020;RN;Portalegre;-6.02;-37.98
241000;-6.26;-38.04;;;;;241025;RN;Porto do Mangue;-5.06;-36.78
241010;-5.62;-35.66;;;;;241030;RN;Presidente Juscelino;-6.1;-35.71
241020;-6.02;-37.98;;;;;241040;RN;Pureza;-5.46;-35.55
241025;-5.06;-36.78;;;;;241050;RN;Rafael Fernandes;-6.19;-38.22
241030;-6.1;-35.71;;;;;241060;RN;Rafael Godeiro;-6.07;-37.71
241040;-5.46;-35.55;;;;;241070;RN;Riacho da Cruz;-5.93;-37.94
241050;-6.19;-38.22;;;;;241080;RN;Riacho de Santana;-6.26;-38.31
241060;-6.07;-37.71;;;;;241090;RN;Riachuelo;-5.81;-35.82
241070;-5.93;-37.94;;;;;241100;RN;Rodolfo Fernandes;-5.78;-38.06
241080;-6.26;-38.31;;;;;241105;RN;Tibau;-4.83;-37.25
241090;-5.81;-35.82;;;;;241110;RN;Ruy Barbosa;-5.88;-35.93
241100;-5.78;-38.06;;;;;241120;RN;Santa Cruz;-6.22;-36.02
241105;-4.83;-37.25;;;;;241140;RN;Santana do Matos;-5.95;-36.65
241110;-5.88;-35.93;;;;;241142;RN;Santana do Seridó;-6.77;-36.73
241120;-6.22;-36.02;;;;;241150;RN;Santo Antônio;-6.31;-35.47
241140;-5.95;-36.65;;;;;241160;RN;São Bento do Norte;-5.09;-35.95
241142;-6.77;-36.73;;;;;241170;RN;São Bento do Trairí;-6.34;-36.08
241150;-6.31;-35.47;;;;;241180;RN;São Fernando;-6.37;-37.18
241160;-5.09;-35.95;;;;;241190;RN;São Francisco do Oeste;-5.97;-38.15
241170;-6.34;-36.08;;;;;241200;RN;São Gonçalo do Amarante;-5.79;-35.32
241180;-6.37;-37.18;;;;;241210;RN;São João do Sabugi;-6.71;-37.2
241190;-5.97;-38.15;;;;;241220;RN;São José de Mipibu;-6.07;-35.23
241200;-5.79;-35.32;;;;;241230;RN;São José do Campestre;-6.31;-35.71
241210;-6.71;-37.2;;;;;241240;RN;São José do Seridó;-6.44;-36.87
241220;-6.07;-35.23;;;;;241250;RN;São Miguel;-6.21;-38.49
241230;-6.31;-35.71;;;;;241255;RN;São Miguel do Gostoso;-5.12;-35.63
241240;-6.44;-36.87;;;;;241260;RN;São Paulo do Potengi;-5.89;-35.76
241250;-6.21;-38.49;;;;;241270;RN;São Pedro;-5.89;-35.63
241255;-5.12;-35.63;;;;;241280;RN;São Rafael;-5.79;-36.92
241260;-5.89;-35.76;;;;;241290;RN;São Tomé;-5.97;-36.07
241270;-5.89;-35.63;;;;;241300;RN;São Vicente;-6.21;-36.68
241280;-5.79;-36.92;;;;;241310;RN;Senador Elói de Souza;-6.03;-35.69
241290;-5.97;-36.07;;;;;241320;RN;Senador Georgino Avelino;-6.16;-35.12
241300;-6.21;-36.68;;;;;241330;RN;Serra de São Bento;-6.41;-35.7
241310;-6.03;-35.69;;;;;241335;RN;Serra do Mel;-5.17;-37.02
241320;-6.16;-35.12;;;;;241340;RN;Serra Negra do Norte;-6.66;-37.39
241330;-6.41;-35.7;;;;;241350;RN;Serrinha;-6.27;-35.49
241335;-5.17;-37.02;;;;;241355;RN;Serrinha dos Pintos;-6.11;-37.95
241340;-6.66;-37.39;;;;;241360;RN;Severiano Melo;-5.77;-37.95
241350;-6.27;-35.49;;;;;241370;RN;Sítio Novo;-6.1;-35.91
241355;-6.11;-37.95;;;;;241380;RN;Taboleiro Grande;-5.92;-38.04
241360;-5.77;-37.95;;;;;241390;RN;Taipu;-5.62;-35.59
241370;-6.1;-35.91;;;;;241400;RN;Tangará;-6.19;-35.8
241380;-5.92;-38.04;;;;;241410;RN;Tenente Ananias;-6.46;-38.18
241390;-5.62;-35.59;;;;;241415;RN;Tenente Laurentino Cruz;-6.14;-36.71
241400;-6.19;-35.8;;;;;241420;RN;Tibau do Sul;-6.18;-35.09
241410;-6.46;-38.18;;;;;241430;RN;Timbaúba dos Batistas;-6.46;-37.27
241415;-6.14;-36.71;;;;;241440;RN;Touros;-5.19;-35.46
241420;-6.18;-35.09;;;;;241445;RN;Triunfo Potiguar;-5.86;-37.18
241430;-6.46;-37.27;;;;;241450;RN;Umarizal;-5.99;-37.81
241440;-5.19;-35.46;;;;;241460;RN;Upanema;-5.64;-37.25
241445;-5.86;-37.18;;;;;241470;RN;Várzea;-6.34;-35.37
241450;-5.99;-37.81;;;;;241475;RN;Venha-Ver;-6.32;-38.48
241460;-5.64;-37.25;;;;;241480;RN;Vera Cruz;-6.04;-35.42
241470;-6.34;-35.37;;;;;241490;RN;Viçosa;-5.99;-37.94
241475;-6.32;-38.48;;;;;241500;RN;Vila Flor;-6.31;-35.07
241480;-6.04;-35.42;;;;;250010;PB;Água Branca;-7.51;-37.64
241490;-5.99;-37.94;;;;;250020;PB;Aguiar;-7.09;-38.17
241500;-6.31;-35.07;;;;;250030;PB;Alagoa Grande;-7.08;-35.63
250010;-7.51;-37.64;;;;;250040;PB;Alagoa Nova;-7.07;-35.75
250020;-7.09;-38.17;;;;;250050;PB;Alagoinha;-6.94;-35.54
250030;-7.08;-35.63;;;;;250053;PB;Alcantil;-7.74;-36.05
250040;-7.07;-35.75;;;;;250057;PB;Algodão de Jandaíra;-6.81;-35.92
250050;-6.94;-35.54;;;;;250060;PB;Alhandra;-7.43;-34.91
250053;-7.74;-36.05;;;;;250070;PB;São João do Rio do Peixe;-6.72;-38.44
250057;-6.81;-35.92;;;;;250073;PB;Amparo;-7.56;-37.06
250060;-7.43;-34.91;;;;;250077;PB;Aparecida;-6.78;-38.08
250070;-6.72;-38.44;;;;;250080;PB;Araçagi;-6.85;-35.38
250073;-7.56;-37.06;;;;;250090;PB;Arara;-6.82;-35.75
250077;-6.78;-38.08;;;;;250100;PB;Araruna;-6.55;-35.74
250080;-6.85;-35.38;;;;;250110;PB;Areia;-6.96;-35.69
250090;-6.82;-35.75;;;;;250115;PB;Areia de Baraúnas;-7.12;-36.94
250100;-6.55;-35.74;;;;;250120;PB;Areial;-7.04;-35.93
250110;-6.96;-35.69;;;;;250130;PB;Aroeiras;-7.54;-35.7
250115;-7.12;-36.94;;;;;250135;PB;Assunção;-7.07;-36.73
250120;-7.04;-35.93;;;;;250140;PB;Baía da Traição;-6.68;-34.93
250130;-7.54;-35.7;;;;;250150;PB;Bananeiras;-6.75;-35.63
250135;-7.07;-36.73;;;;;250153;PB;Baraúna;-6.64;-36.25
250140;-6.68;-34.93;;;;;250157;PB;Barra de Santana;-7.51;-36
250150;-6.75;-35.63;;;;;250160;PB;Barra de Santa Rosa;-6.71;-36.06
250153;-6.64;-36.25;;;;;250170;PB;Barra de São Miguel;-7.75;-36.31
250157;-7.51;-36;;;;;250180;PB;Bayeux;-7.12;-34.93
250160;-6.71;-36.06;;;;;250190;PB;Belém;-6.74;-35.51
250170;-7.75;-36.31;;;;;250200;PB;Belém do Brejo do Cruz;-6.18;-37.53
250180;-7.12;-34.93;;;;;250205;PB;Bernardino Batista;-6.45;-38.55
250190;-6.74;-35.51;;;;;250210;PB;Boa Ventura;-7.41;-38.21
250200;-6.18;-37.53;;;;;250215;PB;Boa Vista;-7.25;-36.24
250205;-6.45;-38.55;;;;;250220;PB;Bom Jesus;-6.81;-38.65
250210;-7.41;-38.21;;;;;250230;PB;Bom Sucesso;-6.44;-37.92
250215;-7.25;-36.24;;;;;250240;PB;Bonito de Santa Fé;-7.31;-38.51
250220;-6.81;-38.65;;;;;250250;PB;Boqueirão;-7.48;-36.13
250230;-6.44;-37.92;;;;;250260;PB;Igaracy;-7.18;-38.14
250240;-7.31;-38.51;;;;;250270;PB;Borborema;-6.8;-35.62
250250;-7.48;-36.13;;;;;250280;PB;Brejo do Cruz;-6.34;-37.49
250260;-7.18;-38.14;;;;;250290;PB;Brejo dos Santos;-6.37;-37.82
250270;-6.8;-35.62;;;;;250300;PB;Caaporã;-7.51;-34.9
250280;-6.34;-37.49;;;;;250310;PB;Cabaceiras;-7.48;-36.28
250290;-6.37;-37.82;;;;;250320;PB;Cabedelo;-6.98;-34.83
250300;-7.51;-34.9;;;;;250330;PB;Cachoeira dos Índios;-6.92;-38.67
250310;-7.48;-36.28;;;;;250340;PB;Cacimba de Areia;-7.12;-37.15
250320;-6.98;-34.83;;;;;250350;PB;Cacimba de Dentro;-6.64;-35.79
250330;-6.92;-38.67;;;;;250355;PB;Cacimbas;-7.21;-37.05
250340;-7.12;-37.15;;;;;250360;PB;Caiçara;-6.55;-35.41
250350;-6.64;-35.79;;;;;250370;PB;Cajazeiras;-6.88;-38.56
250355;-7.21;-37.05;;;;;250375;PB;Cajazeirinhas;-6.96;-37.8
250360;-6.55;-35.41;;;;;250380;PB;Caldas Brandão;-7.1;-35.32
250370;-6.88;-38.56;;;;;250390;PB;Camalaú;-7.88;-36.82
250375;-6.96;-37.8;;;;;250400;PB;Campina Grande;-7.23;-35.88
250380;-7.1;-35.32;;;;;250403;PB;Capim;-6.91;-35.17
250390;-7.88;-36.82;;;;;250407;PB;Caraúbas;-7.72;-36.49
250400;-7.23;-35.88;;;;;250410;PB;Carrapateira;-7.03;-38.34
250403;-6.91;-35.17;;;;;250415;PB;Casserengue;-6.78;-35.82
250407;-7.72;-36.49;;;;;250420;PB;Catingueira;-7.12;-37.6
250410;-7.03;-38.34;;;;;250430;PB;Catolé do Rocha;-6.34;-37.74
250415;-6.78;-35.82;;;;;250435;PB;Caturité;-7.42;-36.02
250420;-7.12;-37.6;;;;;250440;PB;Conceição;-7.56;-38.5
250430;-6.34;-37.74;;;;;250450;PB;Condado;-6.9;-37.6
250435;-7.42;-36.02;;;;;250460;PB;Conde;-7.26;-34.9
250440;-7.56;-38.5;;;;;250470;PB;Congo;-7.79;-36.65
250450;-6.9;-37.6;;;;;250480;PB;Coremas;-7.01;-37.94
250460;-7.26;-34.9;;;;;250485;PB;Coxixola;-7.62;-36.6
250470;-7.79;-36.65;;;;;250490;PB;Cruz do Espírito Santo;-7.13;-35.08
250480;-7.01;-37.94;;;;;250500;PB;Cubati;-6.86;-36.35
250485;-7.62;-36.6;;;;;250510;PB;Cuité;-6.48;-36.15
250490;-7.13;-35.08;;;;;250520;PB;Cuitegi;-6.89;-35.52
250500;-6.86;-36.35;;;;;250523;PB;Cuité de Mamanguape;-6.91;-35.25
250510;-6.48;-36.15;;;;;250527;PB;Curral de Cima;-6.71;-35.26
250520;-6.89;-35.52;;;;;250530;PB;Curral Velho;-7.58;-38.19
250523;-6.91;-35.25;;;;;250535;PB;Damião;-6.63;-35.9
250527;-6.71;-35.26;;;;;250540;PB;Desterro;-7.29;-37.09
250530;-7.58;-38.19;;;;;250550;PB;Vista Serrana;-6.73;-37.56
250535;-6.63;-35.9;;;;;250560;PB;Diamante;-7.42;-38.26
250540;-7.29;-37.09;;;;;250570;PB;Dona Inês;-6.61;-35.63
250550;-6.73;-37.56;;;;;250580;PB;Duas Estradas;-6.68;-35.41
250560;-7.42;-38.26;;;;;250590;PB;Emas;-7.1;-37.71
250570;-6.61;-35.63;;;;;250600;PB;Esperança;-7.02;-35.86
250580;-6.68;-35.41;;;;;250610;PB;Fagundes;-7.35;-35.77
250590;-7.1;-37.71;;;;;250620;PB;Frei Martinho;-6.4;-36.45
250600;-7.02;-35.86;;;;;250625;PB;Gado Bravo;-7.58;-35.79
250610;-7.35;-35.77;;;;;250630;PB;Guarabira;-6.85;-35.49
250620;-6.4;-36.45;;;;;250640;PB;Gurinhém;-7.12;-35.42
250625;-7.58;-35.79;;;;;250650;PB;Gurjão;-7.24;-36.48
250630;-6.85;-35.49;;;;;250660;PB;Ibiara;-7.5;-38.4
250640;-7.12;-35.42;;;;;250670;PB;Imaculada;-7.38;-37.5
250650;-7.24;-36.48;;;;;250680;PB;Ingá;-7.26;-35.61
250660;-7.5;-38.4;;;;;250690;PB;Itabaiana;-7.32;-35.33
250670;-7.38;-37.5;;;;;250700;PB;Itaporanga;-7.3;-38.15
250680;-7.26;-35.61;;;;;250710;PB;Itapororoca;-6.82;-35.24
250690;-7.32;-35.33;;;;;250720;PB;Itatuba;-7.37;-35.62
250700;-7.3;-38.15;;;;;250730;PB;Jacaraú;-6.61;-35.29
250710;-6.82;-35.24;;;;;250740;PB;Jericó;-6.55;-37.8
250720;-7.37;-35.62;;;;;250750;PB;João Pessoa;-7.11;-34.86
250730;-6.61;-35.29;;;;;250760;PB;Juarez Távora;-7.17;-35.58
250740;-6.55;-37.8;;;;;250770;PB;Juazeirinho;-7.06;-36.57
250750;-7.11;-34.86;;;;;250780;PB;Junco do Seridó;-6.99;-36.71
250760;-7.17;-35.58;;;;;250790;PB;Juripiranga;-7.37;-35.23
250770;-7.06;-36.57;;;;;250800;PB;Juru;-7.53;-37.81
250780;-6.99;-36.71;;;;;250810;PB;Lagoa;-6.57;-37.91
250790;-7.37;-35.23;;;;;250820;PB;Lagoa de Dentro;-6.67;-35.37
250800;-7.53;-37.81;;;;;250830;PB;Lagoa Seca;-7.17;-35.85
250810;-6.57;-37.91;;;;;250840;PB;Lastro;-6.51;-38.18
250820;-6.67;-35.37;;;;;250850;PB;Livramento;-7.37;-36.94
250830;-7.17;-35.85;;;;;250855;PB;Logradouro;-6.61;-35.44
250840;-6.51;-38.18;;;;;250860;PB;Lucena;-6.9;-34.86
250850;-7.37;-36.94;;;;;250870;PB;Mãe d`Água;-7.25;-37.42
250855;-6.61;-35.44;;;;;250880;PB;Malta;-6.9;-37.52
250860;-6.9;-34.86;;;;;250890;PB;Mamanguape;-6.83;-35.12
250870;-7.25;-37.42;;;;;250900;PB;Manaíra;-7.7;-38.15
250880;-6.9;-37.52;;;;;250905;PB;Marcação;-6.76;-35.01
250890;-6.83;-35.12;;;;;250910;PB;Mari;-7.05;-35.31
250900;-7.7;-38.15;;;;;250915;PB;Marizópolis;-6.84;-38.34
250905;-6.76;-35.01;;;;;250920;PB;Massaranduba;-7.19;-35.78
250910;-7.05;-35.31;;;;;250930;PB;Mataraca;-6.6;-35.05
250915;-6.84;-38.34;;;;;250933;PB;Matinhas;-7.12;-35.76
250920;-7.19;-35.78;;;;;250937;PB;Mato Grosso;-6.53;-37.72
250930;-6.6;-35.05;;;;;250939;PB;Maturéia;-7.26;-37.35
250933;-7.12;-35.76;;;;;250940;PB;Mogeiro;-7.29;-35.47
250937;-6.53;-37.72;;;;;250950;PB;Montadas;-7.08;-35.95
250939;-7.26;-37.35;;;;;250960;PB;Monte Horebe;-7.21;-38.58
250940;-7.29;-35.47;;;;;250970;PB;Monteiro;-7.88;-37.11
250950;-7.08;-35.95;;;;;250980;PB;Mulungu;-7.02;-35.46
250960;-7.21;-38.58;;;;;250990;PB;Natuba;-7.64;-35.54
250970;-7.88;-37.11;;;;;251000;PB;Nazarezinho;-6.91;-38.32
250980;-7.02;-35.46;;;;;251010;PB;Nova Floresta;-6.45;-36.2
250990;-7.64;-35.54;;;;;251020;PB;Nova Olinda;-7.48;-38.04
251000;-6.91;-38.32;;;;;251030;PB;Nova Palmeira;-6.67;-36.42
251010;-6.45;-36.2;;;;;251040;PB;Olho d`Água;-7.22;-37.75
251020;-7.48;-38.04;;;;;251050;PB;Olivedos;-6.99;-36.24
251030;-6.67;-36.42;;;;;251060;PB;Ouro Velho;-7.61;-37.15
251040;-7.22;-37.75;;;;;251065;PB;Parari;-7.32;-36.65
251050;-6.99;-36.24;;;;;251070;PB;Passagem;-7.13;-37.04
251060;-7.61;-37.15;;;;;251080;PB;Patos;-7.02;-37.27
251065;-7.32;-36.65;;;;;251090;PB;Paulista;-6.59;-37.62
251070;-7.13;-37.04;;;;;251100;PB;Pedra Branca;-7.42;-38.06
251080;-7.02;-37.27;;;;;251110;PB;Pedra Lavrada;-6.75;-36.47
251090;-6.59;-37.62;;;;;251120;PB;Pedras de Fogo;-7.4;-35.11
251100;-7.42;-38.06;;;;;251130;PB;Piancó;-7.19;-37.92
251110;-6.75;-36.47;;;;;251140;PB;Picuí;-6.55;-36.34
251120;-7.4;-35.11;;;;;251150;PB;Pilar;-7.26;-35.25
251130;-7.19;-37.92;;;;;251160;PB;Pilões;-6.9;-35.62
251140;-6.55;-36.34;;;;;251170;PB;Pilõezinhos;-6.84;-35.53
251150;-7.26;-35.25;;;;;251180;PB;Pirpirituba;-6.78;-35.49
251160;-6.9;-35.62;;;;;251190;PB;Pitimbu;-7.47;-34.8
251170;-6.84;-35.53;;;;;251200;PB;Pocinhos;-7.07;-36.06
251180;-6.78;-35.49;;;;;251203;PB;Poço Dantas;-6.4;-38.49
251190;-7.47;-34.8;;;;;251207;PB;Poço de José de Moura;-6.57;-38.51
251200;-7.07;-36.06;;;;;251210;PB;Pombal;-6.76;-37.8
251203;-6.4;-38.49;;;;;251220;PB;Prata;-7.69;-37.08
251207;-6.57;-38.51;;;;;251230;PB;Princesa Isabel;-7.73;-37.99
251210;-6.76;-37.8;;;;;251240;PB;Puxinanã;-7.16;-35.96
251220;-7.69;-37.08;;;;;251250;PB;Queimadas;-7.35;-35.89
251230;-7.73;-37.99;;;;;251260;PB;Quixabá;-7.03;-37.14
251240;-7.16;-35.96;;;;;251270;PB;Remígio;-6.9;-35.83
251250;-7.35;-35.89;;;;;251272;PB;Pedro Régis;-6.63;-35.29
251260;-7.03;-37.14;;;;;251274;PB;Riachão;-6.55;-35.64
251270;-6.9;-35.83;;;;;251275;PB;Riachão do Bacamarte;-7.24;-35.66
251272;-6.63;-35.29;;;;;251276;PB;Riachão do Poço;-7.14;-35.29
251274;-6.55;-35.64;;;;;251278;PB;Riacho de Santo Antônio;-7.69;-36.15
251275;-7.24;-35.66;;;;;251280;PB;Riacho dos Cavalos;-6.44;-37.65
251276;-7.14;-35.29;;;;;251290;PB;Rio Tinto;-6.8;-35.08
251278;-7.69;-36.15;;;;;251300;PB;Salgadinho;-7.1;-36.84
251280;-6.44;-37.65;;;;;251310;PB;Salgado de São Félix;-7.35;-35.44
251290;-6.8;-35.08;;;;;251315;PB;Santa Cecília;-7.73;-35.87
251300;-7.1;-36.84;;;;;251320;PB;Santa Cruz;-6.53;-38.06
251310;-7.35;-35.44;;;;;251330;PB;Santa Helena;-6.71;-38.63
251315;-7.73;-35.87;;;;;251335;PB;Santa Inês;-7.62;-38.55
251320;-6.53;-38.06;;;;;251340;PB;Santa Luzia;-6.87;-36.91
251330;-6.71;-38.63;;;;;251350;PB;Santana de Mangueira;-7.55;-38.33
251335;-7.62;-38.55;;;;;251360;PB;Santana dos Garrotes;-7.38;-37.98
251340;-6.87;-36.91;;;;;251365;PB;Joca Claudino;-6.48;-38.47
251350;-7.55;-38.33;;;;;251370;PB;Santa Rita;-7.11;-34.97
251360;-7.38;-37.98;;;;;251380;PB;Santa Teresinha;-7.11;-37.45
251365;-6.48;-38.47;;;;;251385;PB;Santo André;-7.21;-36.63
251370;-7.11;-34.97;;;;;251390;PB;São Bento;-6.48;-37.45
251380;-7.11;-37.45;;;;;251392;PB;São Bentinho;-6.9;-37.72
251385;-7.21;-36.63;;;;;251394;PB;São Domingos do Cariri;-7.63;-36.43
251390;-6.48;-37.45;;;;;251396;PB;São Domingos;-6.81;-37.94
251392;-6.9;-37.72;;;;;251398;PB;São Francisco;-6.61;-38.09
251394;-7.63;-36.43;;;;;251400;PB;São João do Cariri;-7.39;-36.53
251396;-6.81;-37.94;;;;;251410;PB;São João do Tigre;-8.07;-36.84
251398;-6.61;-38.09;;;;;251420;PB;São José da Lagoa Tapada;-6.94;-38.16
251400;-7.39;-36.53;;;;;251430;PB;São José de Caiana;-7.24;-38.3
251410;-8.07;-36.84;;;;;251440;PB;São José de Espinharas;-6.84;-37.32
251420;-6.94;-38.16;;;;;251445;PB;São José dos Ramos;-7.25;-35.38
251430;-7.24;-38.3;;;;;251450;PB;São José de Piranhas;-7.12;-38.5
251440;-6.84;-37.32;;;;;251455;PB;São José de Princesa;-7.73;-38.09
251445;-7.25;-35.38;;;;;251460;PB;São José do Bonfim;-7.16;-37.3
251450;-7.12;-38.5;;;;;251465;PB;São José do Brejo do Cruz;-6.21;-37.35
251455;-7.73;-38.09;;;;;251470;PB;São José do Sabugi;-6.77;-36.79
251460;-7.16;-37.3;;;;;251480;PB;São José dos Cordeiros;-7.39;-36.8
251465;-6.21;-37.35;;;;;251490;PB;São Mamede;-6.92;-37.09
251470;-6.77;-36.79;;;;;251500;PB;São Miguel de Taipu;-7.25;-35.2
251480;-7.39;-36.8;;;;;251510;PB;São Sebastião de Lagoa de  Roça;-7.08;-35.83
251490;-6.92;-37.09;;;;;251520;PB;São Sebastião do Umbuzeiro;-8.15;-37
251500;-7.25;-35.2;;;;;251530;PB;Sapé;-7.09;-35.23
251510;-7.08;-35.83;;;;;251540;PB;Seridó;-6.93;-36.4
251520;-8.15;-37;;;;;251550;PB;Serra Branca;-7.48;-36.66
251530;-7.09;-35.23;;;;;251560;PB;Serra da Raiz;-6.68;-35.44
251540;-6.93;-36.4;;;;;251570;PB;Serra Grande;-7.21;-38.36
251550;-7.48;-36.66;;;;;251580;PB;Serra Redonda;-7.17;-35.67
251560;-6.68;-35.44;;;;;251590;PB;Serraria;-6.82;-35.63
251570;-7.21;-38.36;;;;;251593;PB;Sertãozinho;-6.75;-35.44
251580;-7.17;-35.67;;;;;251597;PB;Sobrado;-7.14;-35.23
251590;-6.82;-35.63;;;;;251600;PB;Solânea;-6.77;-35.69
251593;-6.75;-35.44;;;;;251610;PB;Soledade;-7.05;-36.36
251597;-7.14;-35.23;;;;;251615;PB;Sossêgo;-6.76;-36.25
251600;-6.77;-35.69;;;;;251620;PB;Sousa;-6.76;-38.23
251610;-7.05;-36.36;;;;;251630;PB;Sumé;-7.67;-36.88
251615;-6.76;-36.25;;;;;251640;PB;Tacima;-6.48;-35.63
251620;-6.76;-38.23;;;;;251650;PB;Taperoá;-7.2;-36.82
251630;-7.67;-36.88;;;;;251660;PB;Tavares;-7.63;-37.87
251640;-6.48;-35.63;;;;;251670;PB;Teixeira;-7.22;-37.25
251650;-7.2;-36.82;;;;;251675;PB;Tenório;-6.94;-36.62
251660;-7.63;-37.87;;;;;251680;PB;Triunfo;-6.57;-38.59
251670;-7.22;-37.25;;;;;251690;PB;Uiraúna;-6.51;-38.41
251675;-6.94;-36.62;;;;;251700;PB;Umbuzeiro;-7.69;-35.66
251680;-6.57;-38.59;;;;;251710;PB;Várzea;-6.77;-36.99
251690;-6.51;-38.41;;;;;251720;PB;Vieirópolis;-6.5;-38.25
251700;-7.69;-35.66;;;;;251740;PB;Zabelê;-8.07;-37.09
251710;-6.77;-36.99;;;;;260005;PE;Abreu e Lima;-7.91;-34.9
251720;-6.5;-38.25;;;;;260010;PE;Afogados da Ingazeira;-7.75;-37.63
251740;-8.07;-37.09;;;;;260020;PE;Afrânio;-8.51;-41
260005;-7.91;-34.9;;;;;260030;PE;Agrestina;-8.45;-35.94
260010;-7.75;-37.63;;;;;260040;PE;Água Preta;-8.7;-35.53
260020;-8.51;-41;;;;;260050;PE;Águas Belas;-9.11;-37.12
260030;-8.45;-35.94;;;;;260060;PE;Alagoinha;-8.46;-36.77
260040;-8.7;-35.53;;;;;260070;PE;Aliança;-7.6;-35.23
260050;-9.11;-37.12;;;;;260080;PE;Altinho;-8.48;-36.05
260060;-8.46;-36.77;;;;;260090;PE;Amaraji;-8.38;-35.45
260070;-7.6;-35.23;;;;;260100;PE;Angelim;-8.89;-36.28
260080;-8.48;-36.05;;;;;260105;PE;Araçoiaba;-7.78;-35.09
260090;-8.38;-35.45;;;;;260110;PE;Araripina;-7.57;-40.49
260100;-8.89;-36.28;;;;;260120;PE;Arcoverde;-8.41;-37.05
260105;-7.78;-35.09;;;;;260130;PE;Barra de Guabiraba;-8.42;-35.65
260110;-7.57;-40.49;;;;;260140;PE;Barreiros;-8.81;-35.18
260120;-8.41;-37.05;;;;;260150;PE;Belém de Maria;-8.61;-35.8
260130;-8.42;-35.65;;;;;260160;PE;Belém de São Francisco;-8.75;-38.96
260140;-8.81;-35.18;;;;;260170;PE;Belo Jardim;-8.33;-36.42
260150;-8.61;-35.8;;;;;260180;PE;Betânia;-8.27;-38.03
260160;-8.75;-38.96;;;;;260190;PE;Bezerros;-8.23;-35.79
260170;-8.33;-36.42;;;;;260200;PE;Bodocó;-7.77;-39.94
260180;-8.27;-38.03;;;;;260210;PE;Bom Conselho;-9.17;-36.68
260190;-8.23;-35.79;;;;;260220;PE;Bom Jardim;-7.79;-35.58
260200;-7.77;-39.94;;;;;260230;PE;Bonito;-8.47;-35.72
260210;-9.17;-36.68;;;;;260240;PE;Brejão;-9.02;-36.56
260220;-7.79;-35.58;;;;;260250;PE;Brejinho;-7.34;-37.28
260230;-8.47;-35.72;;;;;260260;PE;Brejo da Madre de Deus;-8.14;-36.37
260240;-9.02;-36.56;;;;;260270;PE;Buenos Aires;-7.72;-35.32
260250;-7.34;-37.28;;;;;260280;PE;Buíque;-8.62;-37.15
260260;-8.14;-36.37;;;;;260290;PE;Cabo de Santo Agostinho;-8.28;-35.03
260270;-7.72;-35.32;;;;;260300;PE;Cabrobó;-8.51;-39.3
260280;-8.62;-37.15;;;;;260310;PE;Cachoeirinha;-8.48;-36.23
260290;-8.28;-35.03;;;;;260320;PE;Caetés;-8.77;-36.62
260300;-8.51;-39.3;;;;;260330;PE;Calçado;-8.74;-36.33
260310;-8.48;-36.23;;;;;260340;PE;Calumbi;-7.94;-38.15
260320;-8.77;-36.62;;;;;260345;PE;Camaragibe;-8.02;-34.98
260330;-8.74;-36.33;;;;;260350;PE;Camocim de São Félix;-8.35;-35.76
260340;-7.94;-38.15;;;;;260360;PE;Camutanga;-7.4;-35.27
260345;-8.02;-34.98;;;;;260370;PE;Canhotinho;-8.88;-36.19
260350;-8.35;-35.76;;;;;260380;PE;Capoeiras;-8.73;-36.62
260360;-7.4;-35.27;;;;;260390;PE;Carnaíba;-7.8;-37.79
260370;-8.88;-36.19;;;;;260392;PE;Carnaubeira da Penha;-8.32;-38.74
260380;-8.73;-36.62;;;;;260400;PE;Carpina;-7.85;-35.25
260390;-7.8;-37.79;;;;;260410;PE;Caruaru;-8.28;-35.97
260392;-8.32;-38.74;;;;;260415;PE;Casinhas;-7.74;-35.72
260400;-7.85;-35.25;;;;;260420;PE;Catende;-8.66;-35.71
260410;-8.28;-35.97;;;;;260430;PE;Cedro;-7.72;-39.23
260415;-7.74;-35.72;;;;;260440;PE;Chã de Alegria;-8;-35.21
260420;-8.66;-35.71;;;;;260450;PE;Chã Grande;-8.23;-35.46
260430;-7.72;-39.23;;;;;260460;PE;Condado;-7.58;-35.1
260440;-8;-35.21;;;;;260470;PE;Correntes;-9.12;-36.33
260450;-8.23;-35.46;;;;;260480;PE;Cortês;-8.47;-35.54
260460;-7.58;-35.1;;;;;260490;PE;Cumaru;-8;-35.69
260470;-9.12;-36.33;;;;;260500;PE;Cupira;-8.61;-35.95
260480;-8.47;-35.54;;;;;260510;PE;Custódia;-8.08;-37.64
260490;-8;-35.69;;;;;260515;PE;Dormentes;-8.44;-40.77
260500;-8.61;-35.95;;;;;260520;PE;Escada;-8.35;-35.22
260510;-8.08;-37.64;;;;;260530;PE;Exu;-7.51;-39.72
260515;-8.44;-40.77;;;;;260540;PE;Feira Nova;-7.95;-35.38
260520;-8.35;-35.22;;;;;260545;PE;Fernando de Noronha;-3.83;-32.41
260530;-7.51;-39.72;;;;;260550;PE;Ferreiros;-7.44;-35.24
260540;-7.95;-35.38;;;;;260560;PE;Flores;-7.86;-37.97
260545;-3.83;-32.41;;;;;260570;PE;Floresta;-8.6;-38.56
260550;-7.44;-35.24;;;;;260580;PE;Frei Miguelinho;-7.94;-35.91
260560;-7.86;-37.97;;;;;260590;PE;Gameleira;-8.58;-35.38
260570;-8.6;-38.56;;;;;260600;PE;Garanhuns;-8.89;-36.49
260580;-7.94;-35.91;;;;;260610;PE;Glória do Goitá;-8;-35.29
260590;-8.58;-35.38;;;;;260620;PE;Goiana;-7.56;-35
260600;-8.89;-36.49;;;;;260630;PE;Granito;-7.71;-39.61
260610;-8;-35.29;;;;;260640;PE;Gravatá;-8.2;-35.56
260620;-7.56;-35;;;;;260650;PE;Iati;-9.04;-36.84
260630;-7.71;-39.61;;;;;260660;PE;Ibimirim;-8.54;-37.68
260640;-8.2;-35.56;;;;;260670;PE;Ibirajuba;-8.58;-36.17
260650;-9.04;-36.84;;;;;260680;PE;Igarassu;-7.83;-34.9
260660;-8.54;-37.68;;;;;260690;PE;Iguaraci;-7.83;-37.51
260670;-8.58;-36.17;;;;;260700;PE;Inajá;-8.9;-37.82
260680;-7.83;-34.9;;;;;260710;PE;Ingazeira;-7.67;-37.45
260690;-7.83;-37.51;;;;;260720;PE;Ipojuca;-8.39;-35.06
260700;-8.9;-37.82;;;;;260730;PE;Ipubi;-7.65;-40.14
260710;-7.67;-37.45;;;;;260740;PE;Itacuruba;-8.83;-38.7
260720;-8.39;-35.06;;;;;260750;PE;Itaíba;-8.94;-37.42
260730;-7.65;-40.14;;;;;260760;PE;Ilha de Itamaracá;-7.74;-34.82
260740;-8.83;-38.7;;;;;260765;PE;Itambé;-7.4;-35.11
260750;-8.94;-37.42;;;;;260770;PE;Itapetim;-7.37;-37.18
260760;-7.74;-34.82;;;;;260775;PE;Itapissuma;-7.77;-34.89
260765;-7.4;-35.11;;;;;260780;PE;Itaquitinga;-7.66;-35.1
260770;-7.37;-37.18;;;;;260790;PE;Jaboatão dos Guararapes;-8.11;-35.01
260775;-7.77;-34.89;;;;;260795;PE;Jaqueira;-8.72;-35.79
260780;-7.66;-35.1;;;;;260800;PE;Jataúba;-7.98;-36.49
260790;-8.11;-35.01;;;;;260805;PE;Jatobá;-9.18;-38.26
260795;-8.72;-35.79;;;;;260810;PE;João Alfredo;-7.85;-35.58
260800;-7.98;-36.49;;;;;260820;PE;Joaquim Nabuco;-8.62;-35.53
260805;-9.18;-38.26;;;;;260825;PE;Jucati;-8.7;-36.48
260810;-7.85;-35.58;;;;;260830;PE;Jupi;-8.71;-36.41
260820;-8.62;-35.53;;;;;260840;PE;Jurema;-8.71;-36.13
260825;-8.7;-36.48;;;;;260845;PE;Lagoa do Carro;-7.84;-35.31
260830;-8.71;-36.41;;;;;260850;PE;Lagoa do Itaenga;-7.93;-35.29
260840;-8.71;-36.13;;;;;260860;PE;Lagoa do Ouro;-9.12;-36.45
260845;-7.84;-35.31;;;;;260870;PE;Lagoa dos Gatos;-8.65;-35.9
260850;-7.93;-35.29;;;;;260875;PE;Lagoa Grande;-8.99;-40.27
260860;-9.12;-36.45;;;;;260880;PE;Lajedo;-8.66;-36.31
260870;-8.65;-35.9;;;;;260890;PE;Limoeiro;-7.87;-35.45
260875;-8.99;-40.27;;;;;260900;PE;Macaparana;-7.55;-35.45
260880;-8.66;-36.31;;;;;260910;PE;Machados;-7.68;-35.51
260890;-7.87;-35.45;;;;;260915;PE;Manari;-8.96;-37.62
260900;-7.55;-35.45;;;;;260920;PE;Maraial;-8.8;-35.82
260910;-7.68;-35.51;;;;;260930;PE;Mirandiba;-8.11;-38.72
260915;-8.96;-37.62;;;;;260940;PE;Moreno;-8.11;-35.09
260920;-8.8;-35.82;;;;;260950;PE;Nazaré da Mata;-7.74;-35.22
260930;-8.11;-38.72;;;;;260960;PE;Olinda;-8;-34.85
260940;-8.11;-35.09;;;;;260970;PE;Orobó;-7.74;-35.6
260950;-7.74;-35.22;;;;;260980;PE;Orocó;-8.61;-39.6
260960;-8;-34.85;;;;;260990;PE;Ouricuri;-7.88;-40.08
260970;-7.74;-35.6;;;;;261000;PE;Palmares;-8.68;-35.59
260980;-8.61;-39.6;;;;;261010;PE;Palmeirina;-9;-36.32
260990;-7.88;-40.08;;;;;261020;PE;Panelas;-8.66;-36
261000;-8.68;-35.59;;;;;261030;PE;Paranatama;-8.92;-36.65
261010;-9;-36.32;;;;;261040;PE;Parnamirim;-8.09;-39.57
261020;-8.66;-36;;;;;261050;PE;Passira;-7.99;-35.58
261030;-8.92;-36.65;;;;;261060;PE;Paudalho;-7.89;-35.18
261040;-8.09;-39.57;;;;;261070;PE;Paulista;-7.94;-34.87
261050;-7.99;-35.58;;;;;261080;PE;Pedra;-8.49;-36.94
261060;-7.89;-35.18;;;;;261090;PE;Pesqueira;-8.35;-36.69
261070;-7.94;-34.87;;;;;261100;PE;Petrolândia;-9.06;-38.3
261080;-8.49;-36.94;;;;;261110;PE;Petrolina;-9.39;-40.5
261090;-8.35;-36.69;;;;;261120;PE;Poção;-8.18;-36.7
261100;-9.06;-38.3;;;;;261130;PE;Pombos;-8.14;-35.39
261110;-9.39;-40.5;;;;;261140;PE;Primavera;-8.33;-35.35
261120;-8.18;-36.7;;;;;261150;PE;Quipapá;-8.82;-36.01
261130;-8.14;-35.39;;;;;261153;PE;Quixaba;-7.71;-37.84
261140;-8.33;-35.35;;;;;261160;PE;Recife;-8.05;-34.88
261150;-8.82;-36.01;;;;;261170;PE;Riacho das Almas;-8.13;-35.85
261153;-7.71;-37.84;;;;;261180;PE;Ribeirão;-8.51;-35.37
261160;-8.05;-34.88;;;;;261190;PE;Rio Formoso;-8.66;-35.15
261170;-8.13;-35.85;;;;;261200;PE;Sairé;-8.32;-35.7
261180;-8.51;-35.37;;;;;261210;PE;Salgadinho;-7.93;-35.63
261190;-8.66;-35.15;;;;;261220;PE;Salgueiro;-8.06;-39.11
261200;-8.32;-35.7;;;;;261230;PE;Saloá;-8.97;-36.68
261210;-7.93;-35.63;;;;;261240;PE;Sanharó;-8.36;-36.56
261220;-8.06;-39.11;;;;;261245;PE;Santa Cruz;-8.23;-40.33
261230;-8.97;-36.68;;;;;261247;PE;Santa Cruz da Baixa Verde;-7.82;-38.15
261240;-8.36;-36.56;;;;;261250;PE;Santa Cruz do Capibaribe;-7.95;-36.2
261245;-8.23;-40.33;;;;;261255;PE;Santa Filomena;-8.16;-40.61
261247;-7.82;-38.15;;;;;261260;PE;Santa Maria da Boa Vista;-8.8;-39.82
261250;-7.95;-36.2;;;;;261270;PE;Santa Maria do Cambucá;-7.84;-35.9
261255;-8.16;-40.61;;;;;261280;PE;Santa Terezinha;-7.37;-37.47
261260;-8.8;-39.82;;;;;261290;PE;São Benedito do Sul;-8.8;-35.95
261270;-7.84;-35.9;;;;;261300;PE;São Bento do Una;-8.52;-36.44
261280;-7.37;-37.47;;;;;261310;PE;São Caitano;-8.32;-36.14
261290;-8.8;-35.95;;;;;261320;PE;São João;-8.87;-36.36
261300;-8.52;-36.44;;;;;261330;PE;São Joaquim do Monte;-8.43;-35.8
261310;-8.32;-36.14;;;;;261340;PE;São José da Coroa Grande;-8.89;-35.14
261320;-8.87;-36.36;;;;;261350;PE;São José do Belmonte;-7.86;-38.75
261330;-8.43;-35.8;;;;;261360;PE;São José do Egito;-7.47;-37.27
261340;-8.89;-35.14;;;;;261370;PE;São Lourenço da Mata;-8;-35.01
261350;-7.86;-38.75;;;;;261380;PE;São Vicente Ferrer;-7.59;-35.49
261360;-7.47;-37.27;;;;;261390;PE;Serra Talhada;-7.98;-38.29
261370;-8;-35.01;;;;;261400;PE;Serrita;-7.93;-39.29
261380;-7.59;-35.49;;;;;261410;PE;Sertânia;-8.07;-37.26
261390;-7.98;-38.29;;;;;261420;PE;Sirinhaém;-8.59;-35.11
261400;-7.93;-39.29;;;;;261430;PE;Moreilândia;-7.63;-39.55
261410;-8.07;-37.26;;;;;261440;PE;Solidão;-7.59;-37.65
261420;-8.59;-35.11;;;;;261450;PE;Surubim;-7.83;-35.75
261430;-7.63;-39.55;;;;;261460;PE;Tabira;-7.59;-37.53
261440;-7.59;-37.65;;;;;261470;PE;Tacaimbó;-8.31;-36.29
261450;-7.83;-35.75;;;;;261480;PE;Tacaratu;-9.1;-38.15
261460;-7.59;-37.53;;;;;261485;PE;Tamandaré;-8.76;-35.1
261470;-8.31;-36.29;;;;;261500;PE;Taquaritinga do Norte;-7.9;-36.04
261480;-9.1;-38.15;;;;;261510;PE;Terezinha;-9.05;-36.62
261485;-8.76;-35.1;;;;;261520;PE;Terra Nova;-8.22;-39.37
261500;-7.9;-36.04;;;;;261530;PE;Timbaúba;-7.5;-35.31
261510;-9.05;-36.62;;;;;261540;PE;Toritama;-7.99;-36.05
261520;-8.22;-39.37;;;;;261550;PE;Tracunhaém;-7.8;-35.24
261530;-7.5;-35.31;;;;;261560;PE;Trindade;-7.76;-40.26
261540;-7.99;-36.05;;;;;261570;PE;Triunfo;-7.83;-38.1
261550;-7.8;-35.24;;;;;261580;PE;Tupanatinga;-8.75;-37.34
261560;-7.76;-40.26;;;;;261590;PE;Tuparetama;-7.6;-37.31
261570;-7.83;-38.1;;;;;261600;PE;Venturosa;-8.57;-36.87
261580;-8.75;-37.34;;;;;261610;PE;Verdejante;-7.92;-38.97
261590;-7.6;-37.31;;;;;261618;PE;Vertente do Lério;-7.77;-35.84
261600;-8.57;-36.87;;;;;261620;PE;Vertentes;-7.9;-35.98
261610;-7.92;-38.97;;;;;261630;PE;Vicência;-7.65;-35.32
261618;-7.77;-35.84;;;;;261640;PE;Vitória de Santo Antão;-8.11;-35.29
261620;-7.9;-35.98;;;;;261650;PE;Xexéu;-8.8;-35.62
261630;-7.65;-35.32;;;;;270010;AL;Água Branca;-9.26;-37.93
261640;-8.11;-35.29;;;;;270020;AL;Anadia;-9.68;-36.3
261650;-8.8;-35.62;;;;;270030;AL;Arapiraca;-9.75;-36.66
